stop_id,stop_code,stop_name,stop_desc,stop_lat,stop_lon,zone_id,stop_url,location_type,parent_station,stop_timezone,wheelchair_boarding
stop_1_101,,"Mlynka Petla","",50.112008,19.692372,,,0,,,
stop_3_501,,"UR Balicka","",50.080863,19.865546,,,0,,,
stop_3_502,,"UR Balicka","",50.080952,19.865075,,,0,,,
stop_4_701,,"Zakliki (nz)","",50.083078,19.849841,,,0,,,
stop_5_801,,"Mydlniki","",50.084104,19.845516,,,0,,,
stop_5_802,,"Mydlniki","",50.084202,19.84541,,,0,,,
stop_5_803,,"Mydlniki","",50.085012,19.844406,,,0,,,
stop_6_901,,"Mydlniki Stawy (nz)","",50.087826,19.840522,,,0,,,
stop_6_902,,"Mydlniki Stawy (nz)","",50.087367,19.841072,,,0,,,
stop_7_1201,,"Rondo Ofiar Katynia","",50.087347,19.892792,,,0,,,
stop_7_1202,,"Rondo Ofiar Katynia","",50.086671,19.891079,,,0,,,
stop_7_1203,,"Rondo Ofiar Katynia","",50.087661,19.890808,,,0,,,
stop_7_1204,,"Rondo Ofiar Katynia","",50.088154,19.892325,,,0,,,
stop_8_1301,,"Katowicka","",50.089738,19.883723,,,0,,,
stop_8_1302,,"Katowicka","",50.090708,19.882169,,,0,,,
stop_10_1501,,"Pasternik (nz)","",50.09867,19.868155,,,0,,,
stop_10_1502,,"Pasternik (nz)","",50.097556,19.868958,,,0,,,
stop_11_1601,,"Ojcowska Dworek","",50.094431,19.882345,,,0,,,
stop_11_1602,,"Ojcowska Dworek","",50.094222,19.882509,,,0,,,
stop_12_1701,,"Ojcowska Wagroda","",50.097125,19.883196,,,0,,,
stop_12_1702,,"Ojcowska Wagroda","",50.097816,19.883439,,,0,,,
stop_13_1801,,"Ojcowska","",50.100971,19.884267,,,0,,,
stop_13_1802,,"Ojcowska","",50.100776,19.884064,,,0,,,
stop_14_1901,,"Bronowice Wielkie","",50.106029,19.88012,,,0,,,
stop_14_1902,,"Bronowice Wielkie","",50.105211,19.880879,,,0,,,
stop_15_2101,,"Tonie","",50.109707,19.885871,,,0,,,
stop_15_2102,,"Tonie","",50.109905,19.886762,,,0,,,
stop_16_2201,,"Gospodarska","",50.107791,19.903122,,,0,,,
stop_16_2202,,"Gospodarska","",50.108335,19.902602,,,0,,,
stop_17_2301,,"Tonie Skrzyzowanie","",50.11274,19.898463,,,0,,,
stop_17_2302,,"Tonie Skrzyzowanie","",50.112665,19.898364,,,0,,,
stop_18_2501,,"Tonie Katy (nz)","",50.11586,19.9013,,,0,,,
stop_18_2502,,"Tonie Katy (nz)","",50.115714,19.901105,,,0,,,
stop_19_2801,,"Os. Marszowiec","",50.118902,19.941376,,,0,,,
stop_19_2802,,"Os. Marszowiec","",50.118369,19.94161,,,0,,,
stop_20_2901,,"Witkowice","",50.108749,19.943232,,,0,,,
stop_20_2902,,"Witkowice","",50.107402,19.942317,,,0,,,
stop_20_2903,,"Witkowice","",50.108494,19.943088,,,0,,,
stop_21_3001,,"Witkowice Nowe","",50.105388,19.944002,,,0,,,
stop_21_3002,,"Witkowice Nowe","",50.104941,19.944506,,,0,,,
stop_22_3101,,"Dozynkowa","",50.102596,19.945988,,,0,,,
stop_22_3102,,"Dozynkowa","",50.10243,19.946037,,,0,,,
stop_23_3201,,"Siewna","",50.098944,19.947449,,,0,,,
stop_23_3202,,"Siewna","",50.098938,19.947394,,,0,,,
stop_24_3301,,"Siewna Wiadukt","",50.096404,19.947164,,,0,,,
stop_24_3302,,"Siewna Wiadukt","",50.095766,19.946467,,,0,,,
stop_24_3303,,"Siewna Wiadukt","",50.095977,19.947602,,,0,,,
stop_25_3401,,"Bociana","",50.094921,19.951549,,,0,,,
stop_25_3402,,"Bociana","",50.093768,19.952166,,,0,,,
stop_25_3403,,"Bociana","",50.093236,19.953161,,,0,,,
stop_26_3501,,"Gorka Narodowa","",50.092893,19.956337,,,0,,,
stop_27_3601,,"Clepardia","",50.093206,19.944849,,,0,,,
stop_27_3602,,"Clepardia","",50.09409,19.945258,,,0,,,
stop_28_3701,,"Mackiewicza","",50.090414,19.943122,,,0,,,
stop_28_3702,,"Mackiewicza","",50.090695,19.944028,,,0,,,
stop_28_3703,,"Mackiewicza","",50.089616,19.944028,,,0,,,
stop_29_3801,,"Imbramowska","",50.087563,19.948356,,,0,,,
stop_29_3802,,"Imbramowska","",50.088284,19.947211,,,0,,,
stop_30_4001,,"Chabrowa","",50.097755,19.912528,,,0,,,
stop_30_4002,,"Chabrowa","",50.098601,19.912048,,,0,,,
stop_31_4201,,"Skrajna (nz)","",50.092307,19.918204,,,0,,,
stop_31_4202,,"Skrajna (nz)","",50.092529,19.917209,,,0,,,
stop_32_4301,,"Wyki","",50.092666,19.922191,,,0,,,
stop_32_4302,,"Wyki","",50.09273,19.922296,,,0,,,
stop_33_4701,,"Pleszowska","",50.091857,19.934934,,,0,,,
stop_33_4702,,"Pleszowska","",50.091637,19.936297,,,0,,,
stop_33_4703,,"Pleszowska","",50.092305,19.93584,,,0,,,
stop_34_4801,,"Opolska Kladka","",50.091532,19.927117,,,0,,,
stop_34_4802,,"Opolska Kladka","",50.091289,19.927132,,,0,,,
stop_36_5401,,"Azory","",50.086729,19.90885,,,0,,,
stop_36_5491,,"Azory","",50.08651,19.908956,,,0,,,
stop_37_5501,,"Rozyckiego","",50.088384,19.911298,,,0,,,
stop_37_5502,,"Rozyckiego","",50.087947,19.913954,,,0,,,
stop_38_5601,,"Makowskiego","",50.087736,19.916026,,,0,,,
stop_38_5603,,"Makowskiego","",50.087647,19.917369,,,0,,,
stop_38_5604,,"Makowskiego","",50.087612,19.917334,,,0,,,
stop_39_5701,,"Stachiewicza","",50.084942,19.916331,,,0,,,
stop_42_6001,,"Wybickiego","",50.083998,19.927631,,,0,,,
stop_42_6002,,"Wybickiego","",50.083795,19.926412,,,0,,,
stop_43_6103,,"Bratyslawska","",50.082748,19.934616,,,0,,,
stop_43_6104,,"Bratyslawska","",50.08319,19.933971,,,0,,,
stop_43_6105,,"Bratyslawska","",50.084062,19.932112,,,0,,,
stop_44_6201,,"Krowoderskich Zuchow","",50.088679,19.925449,,,0,,,
stop_44_6202,,"Krowoderskich Zuchow","",50.088891,19.926243,,,0,,,
stop_45_6302,,"Krowodrza Gorka","",50.08834,19.93079,,,0,,,
stop_45_6303,,"Krowodrza Gorka","",50.088024,19.932006,,,0,,,
stop_45_6304,,"Krowodrza Gorka","",50.088423,19.931358,,,0,,,
stop_47_6501,,"Lekarska","",50.086474,19.938304,,,0,,,
stop_47_6502,,"Lekarska","",50.086809,19.938472,,,0,,,
stop_48_6701,,"Urzad Marszalkowski","",50.078857,19.922264,,,0,,,
stop_48_6702,,"Urzad Marszalkowski","",50.078779,19.922557,,,0,,,
stop_49_6801,,"Wroclawska","",50.076472,19.928002,,,0,,,
stop_49_6802,,"Wroclawska","",50.077273,19.926203,,,0,,,
stop_50_7103,,"Nowy Kleparz","",50.073671,19.937296,,,0,,,
stop_50_7104,,"Nowy Kleparz","",50.074835,19.935092,,,0,,,
stop_50_7105,,"Nowy Kleparz","",50.074224,19.936252,,,0,,,
stop_50_7106,,"Nowy Kleparz","",50.073206,19.934803,,,0,,,
stop_50_7107,,"Nowy Kleparz","",50.074899,19.936246,,,0,,,
stop_50_7108,,"Nowy Kleparz","",50.074971,19.93654,,,0,,,
stop_50_7109,,"Nowy Kleparz","",50.073764,19.934913,,,0,,,
stop_50_7110,,"Nowy Kleparz","",50.07514,19.93599,,,0,,,
stop_50_7111,,"Nowy Kleparz","",50.074224,19.936252,,,0,,,
stop_51_7301,,"Politechnika","",50.071134,19.945082,,,0,,,
stop_51_7305,,"Politechnika","",50.071071,19.944687,,,0,,,
stop_51_7306,,"Politechnika","",50.071284,19.944126,,,0,,,
stop_52_7601,,"Grottgera","",50.07189,19.930439,,,0,,,
stop_52_7602,,"Grottgera","",50.071751,19.929404,,,0,,,
stop_53_7701,,"Teatr Bagatela","",50.063134,19.93266,,,0,,,
stop_53_7702,,"Teatr Bagatela","",50.063846,19.933432,,,0,,,
stop_53_7703,,"Teatr Bagatela","",50.06375,19.93253,,,0,,,
stop_54_7801,,"Batorego","",50.06656,19.92948,,,0,,,
stop_54_7802,,"Batorego","",50.06704,19.92881,,,0,,,
stop_55_7901,,"Plac Inwalidow","",50.06883,19.92687,,,0,,,
stop_55_7902,,"Plac Inwalidow","",50.069577,19.92602,,,0,,,
stop_55_7903,,"Plac Inwalidow","",50.068681,19.925866,,,0,,,
stop_55_7904,,"Plac Inwalidow","",50.069472,19.926957,,,0,,,
stop_57_8101,,"Czarnowiejska","",50.066172,19.923052,,,0,,,
stop_57_8102,,"Czarnowiejska","",50.066574,19.922154,,,0,,,
stop_58_8202,,"Kawiory","",50.068419,19.913791,,,0,,,
stop_58_8203,,"Kawiory","",50.068372,19.912865,,,0,,,
stop_58_8204,,"Kawiory","",50.068801,19.91391,,,0,,,
stop_59_8301,,"Urzednicza","",50.07181,19.92005,,,0,,,
stop_59_8302,,"Urzednicza","",50.07195,19.91911,,,0,,,
stop_60_8401,,"Biprostal","",50.07291,19.91602,,,0,,,
stop_60_8402,,"Biprostal","",50.072977,19.915195,,,0,,,
stop_60_8403,,"Biprostal","",50.07351,19.91368,,,0,,,
stop_60_8404,,"Biprostal","",50.072412,19.91522,,,0,,,
stop_60_8405,,"Biprostal","",50.073446,19.915894,,,0,,,
stop_61_8501,,"Miasteczko Studenckie AGH","",50.0697,19.903701,,,0,,,
stop_61_8502,,"Miasteczko Studenckie AGH","",50.069923,19.905468,,,0,,,
stop_61_8503,,"Miasteczko Studenckie AGH","",50.069619,19.906581,,,0,,,
stop_61_8504,,"Miasteczko Studenckie AGH","",50.070321,19.904225,,,0,,,
stop_62_8702,,"Cichy Kacik","",50.061932,19.901975,,,0,,,
stop_62_8703,,"Cichy Kacik","",50.062842,19.902653,,,0,,,
stop_62_8704,,"Cichy Kacik","",50.063014,19.903671,,,0,,,
stop_63_8801,,"Uniwersytet Pedagogiczny","",50.07417,19.9108,,,0,,,
stop_63_8802,,"Uniwersytet Pedagogiczny","",50.07423,19.9099,,,0,,,
stop_64_8904,,"Bronowice","",50.0779,19.90072,,,0,,,
stop_64_8905,,"Bronowice","",50.0779,19.90072,,,0,,,
stop_65_9001,,"Mazowiecka","",50.077878,19.917788,,,0,,,
stop_65_9002,,"Mazowiecka","",50.078632,19.918148,,,0,,,
stop_66_9201,,"Opolska Estakada","",50.084822,19.953498,,,0,,,
stop_66_9202,,"Opolska Estakada","",50.086865,19.955584,,,0,,,
stop_66_9203,,"Opolska Estakada","",50.085721,19.95556,,,0,,,
stop_66_9204,,"Opolska Estakada","",50.086521,19.953765,,,0,,,
stop_68_9401,,"Lublanska","",50.084942,19.963582,,,0,,,
stop_68_9402,,"Lublanska","",50.085241,19.9619,,,0,,,
stop_69_9601,,"Majora","",50.088435,19.965406,,,0,,,
stop_69_9602,,"Majora","",50.088409,19.963521,,,0,,,
stop_70_9701,,"Powstancow","",50.092992,19.963764,,,0,,,
stop_70_9702,,"Powstancow","",50.093444,19.964263,,,0,,,
stop_71_9801,,"Kuznicy Kollatajowskiej","",50.098396,19.962468,,,0,,,
stop_71_9802,,"Kuznicy Kollatajowskiej","",50.096635,19.961792,,,0,,,
stop_71_9803,,"Kuznicy Kollatajowskiej","",50.097993,19.960888,,,0,,,
stop_72_10001,,"Pradnik Czerwony","",50.096738,19.974521,,,0,,,
stop_72_10002,,"Pradnik Czerwony","",50.096548,19.973833,,,0,,,
stop_72_10003,,"Pradnik Czerwony","",50.095904,19.974326,,,0,,,
stop_72_10091,,"Pradnik Czerwony","",50.095904,19.974326,,,0,,,
stop_73_10101,,"Strzelcow","",50.093301,19.975578,,,0,,,
stop_73_10102,,"Strzelcow","",50.092639,19.974904,,,0,,,
stop_73_10191,,"Strzelcow","",50.093282,19.975559,,,0,,,
stop_73_10192,,"Strzelcow","",50.092663,19.974912,,,0,,,
stop_74_10201,,"Olszecka","",50.088626,19.968462,,,0,,,
stop_74_10202,,"Olszecka","",50.088761,19.970874,,,0,,,
stop_75_10301,,"Olsza II","",50.084894,19.968893,,,0,,,
stop_75_10302,,"Olsza II","",50.085431,19.970348,,,0,,,
stop_76_10401,,"Miechowity","",50.083347,19.968909,,,0,,,
stop_76_10402,,"Miechowity","",50.083149,19.971163,,,0,,,
stop_76_10403,,"Miechowity","",50.083368,19.970528,,,0,,,
stop_79_10801,,"Os. Oswiecenia","",50.088564,19.989642,,,0,,,
stop_79_10802,,"Os. Oswiecenia","",50.089401,19.987416,,,0,,,
stop_79_10803,,"Os. Oswiecenia","",50.089542,19.988571,,,0,,,
stop_81_11001,,"Wislicka","",50.087609,20.002066,,,0,,,
stop_81_11002,,"Wislicka","",50.087772,20.000442,,,0,,,
stop_81_11003,,"Wislicka","",50.087152,20.001331,,,0,,,
stop_81_11004,,"Wislicka","",50.088247,20.001515,,,0,,,
stop_82_11101,,"Os. Dywizjonu 303","",50.084839,20.000601,,,0,,,
stop_82_11102,,"Os. Dywizjonu 303","",50.084271,19.999611,,,0,,,
stop_83_11203,,"Stella-Sawickiego","",50.07449,20.005459,,,0,,,
stop_83_11204,,"Stella-Sawickiego","",50.074106,20.005201,,,0,,,
stop_83_11205,,"Stella-Sawickiego","",50.076517,20.003523,,,0,,,
stop_83_11206,,"Stella-Sawickiego","",50.074859,20.003679,,,0,,,
stop_83_11207,,"Stella-Sawickiego","",50.073653,20.003401,,,0,,,
stop_84_11303,,"AWF","",50.073839,19.998277,,,0,,,
stop_84_11304,,"AWF","",50.074006,19.99753,,,0,,,
stop_85_11501,,"Ugorek","",50.077082,19.98418,,,0,,,
stop_85_11502,,"Ugorek","",50.077956,19.983435,,,0,,,
stop_86_11601,,"Spadochroniarzy","",50.079892,19.981472,,,0,,,
stop_86_11602,,"Spadochroniarzy","",50.080294,19.980883,,,0,,,
stop_87_11701,,"Akacjowa","",50.081525,19.976916,,,0,,,
stop_87_11702,,"Akacjowa","",50.081585,19.977553,,,0,,,
stop_88_11801,,"Rondo Mlynskie","",50.081531,19.972927,,,0,,,
stop_88_11802,,"Rondo Mlynskie","",50.080288,19.972834,,,0,,,
stop_88_11803,,"Rondo Mlynskie","",50.079975,19.974362,,,0,,,
stop_89_11901,,"Pilotow","",50.078843,19.971524,,,0,,,
stop_89_11902,,"Pilotow","",50.077893,19.970254,,,0,,,
stop_90_12001,,"lukasiewicza","",50.075296,19.965396,,,0,,,
stop_91_12101,,"Narzymskiego","",50.073745,19.966319,,,0,,,
stop_91_12102,,"Narzymskiego","",50.07365,19.966056,,,0,,,
stop_92_12201,,"Biskupa Prandoty","",50.079177,19.949926,,,0,,,
stop_92_12202,,"Biskupa Prandoty","",50.078014,19.948669,,,0,,,
stop_93_12301,,"Brogi","",50.079834,19.961065,,,0,,,
stop_93_12302,,"Brogi","",50.079687,19.959389,,,0,,,
stop_94_12403,,"Cmentarz Rakowicki","",50.073691,19.958901,,,0,,,
stop_94_12404,,"Cmentarz Rakowicki","",50.073684,19.958582,,,0,,,
stop_95_12501,,"Rondo Mogilskie","",50.065777,19.959682,,,0,,,
stop_95_12502,,"Rondo Mogilskie","",50.065699,19.959622,,,0,,,
stop_95_12503,,"Rondo Mogilskie","",50.064913,19.959279,,,0,,,
stop_95_12504,,"Rondo Mogilskie","",50.065026,19.959309,,,0,,,
stop_95_12506,,"Rondo Mogilskie","",50.067194,19.959679,,,0,,,
stop_95_12508,,"Rondo Mogilskie","",50.067071,19.957721,,,0,,,
stop_95_12509,,"Rondo Mogilskie","",50.064734,19.959111,,,0,,,
stop_95_12510,,"Rondo Mogilskie","",50.065644,19.957568,,,0,,,
stop_96_12601,,"Lubicz","",50.065186,19.952104,,,0,,,
stop_96_12602,,"Lubicz","",50.065084,19.951166,,,0,,,
stop_97_12703,,"Uniwersytet Ekonomiczny","",50.068358,19.95154,,,0,,,
stop_97_12704,,"Uniwersytet Ekonomiczny","",50.067808,19.953231,,,0,,,
stop_98_12903,,"Cystersow","",50.066457,19.97187,,,0,,,
stop_99_13003,,"Bialucha","",50.067388,19.977083,,,0,,,
stop_99_13004,,"Bialucha","",50.067732,19.97726,,,0,,,
stop_101_13201,,"Radzikowskiego","",50.083317,19.909111,,,0,,,
stop_103_13502,,"Bronowice Male","",50.081047,19.880481,,,0,,,
stop_103_13503,,"Bronowice Male","",50.082085,19.881682,,,0,,,
stop_103_13505,,"Bronowice Male","",50.082173,19.883632,,,0,,,
stop_103_13506,,"Bronowice Male","",50.081022,19.880564,,,0,,,
stop_103_13507,,"Bronowice Male","",50.08103,19.88064,,,0,,,
stop_103_13508,,"Bronowice Male","",50.08209,19.88303,,,0,,,
stop_105_13701,,"Zarzecze","",50.076622,19.88864,,,0,,,
stop_105_13702,,"Zarzecze","",50.077402,19.889286,,,0,,,
stop_106_13901,,"Tondosa (nz)","",50.060622,19.892997,,,0,,,
stop_106_13902,,"Tondosa (nz)","",50.06078,19.89148,,,0,,,
stop_107_14001,,"Lajkonika (nz)","",50.062106,19.888395,,,0,,,
stop_108_14101,,"Strzelnica","",50.063652,19.883935,,,0,,,
stop_108_14102,,"Strzelnica","",50.062863,19.886262,,,0,,,
stop_109_14201,,"Sielanka","",50.065192,19.878089,,,0,,,
stop_109_14202,,"Sielanka","",50.065279,19.877429,,,0,,,
stop_110_14301,,"Park Decjusza","",50.066999,19.86978,,,0,,,
stop_110_14302,,"Park Decjusza","",50.06707,19.869373,,,0,,,
stop_111_14401,,"Stara Wola","",50.061656,19.870877,,,0,,,
stop_111_14402,,"Stara Wola","",50.062134,19.871103,,,0,,,
stop_112_14501,,"Baba Jaga (nz)","",50.059198,19.862378,,,0,,,
stop_112_14502,,"Baba Jaga (nz)","",50.059121,19.862555,,,0,,,
stop_113_14601,,"ZOO","",50.055086,19.855394,,,0,,,
stop_114_14701,,"Kasztanowa","",50.065227,19.865359,,,0,,,
stop_114_14702,,"Kasztanowa","",50.065057,19.866189,,,0,,,
stop_115_14801,,"Kopalina (nz)","",50.06579,19.861888,,,0,,,
stop_115_14802,,"Kopalina (nz)","",50.065949,19.860744,,,0,,,
stop_116_14901,,"Zielony Dol","",50.066731,19.856133,,,0,,,
stop_116_14902,,"Zielony Dol","",50.066774,19.85574,,,0,,,
stop_118_15101,,"Chelm","",50.067818,19.846132,,,0,,,
stop_118_15102,,"Chelm","",50.067881,19.847318,,,0,,,
stop_118_15103,,"Chelm","",50.067556,19.846639,,,0,,,
stop_119_15201,,"Chelmska (nz)","",50.063886,19.84119,,,0,,,
stop_119_15202,,"Chelmska (nz)","",50.063915,19.841118,,,0,,,
stop_120_15301,,"Rzepichy (nz)","",50.062377,19.835546,,,0,,,
stop_120_15302,,"Rzepichy (nz)","",50.06229,19.835686,,,0,,,
stop_121_15401,,"Raczkiewicza (nz)","",50.068856,19.837176,,,0,,,
stop_121_15402,,"Raczkiewicza (nz)","",50.068795,19.837624,,,0,,,
stop_122_15501,,"Zakamycze","",50.058333,19.829139,,,0,,,
stop_122_15591,,"Zakamycze","",50.058333,19.829139,,,0,,,
stop_123_15601,,"Kosmowskiej (nz)","",50.061222,19.831001,,,0,,,
stop_123_15602,,"Kosmowskiej (nz)","",50.061417,19.831556,,,0,,,
stop_124_15701,,"Lesmiana","",50.068216,19.832941,,,0,,,
stop_124_15702,,"Lesmiana","",50.068206,19.832477,,,0,,,
stop_125_15801,,"Olszanica Kapliczka (nz)","",50.068185,19.828562,,,0,,,
stop_125_15802,,"Olszanica Kapliczka (nz)","",50.068112,19.828303,,,0,,,
stop_126_16101,,"Olszanica Bory","",50.062128,19.805012,,,0,,,
stop_126_16102,,"Olszanica Bory","",50.061829,19.805937,,,0,,,
stop_127_16501,,"Wegrzce Centrum","",50.1201,19.9742,,,0,,,
stop_127_16502,,"Wegrzce Centrum","",50.120134,19.974252,,,0,,,
stop_127_16592,,"Wegrzce Centrum","",50.119979,19.974642,,,0,,,
stop_132_17701,,"Zielonki Rozjazd","",50.129435,19.917047,,,0,,,
stop_132_17702,,"Zielonki Rozjazd","",50.129332,19.917032,,,0,,,
stop_133_17801,,"Trojanowice Petla","",50.140967,19.910826,,,0,,,
stop_133_17891,,"Trojanowice Petla","",50.1411,19.9108,,,0,,,
stop_134_18001,,"Zielonki Transformator","",50.123877,19.920416,,,0,,,
stop_134_18002,,"Zielonki Transformator","",50.123824,19.920264,,,0,,,
stop_135_18101,,"Zielonki UG","",50.118479,19.921324,,,0,,,
stop_135_18102,,"Zielonki UG","",50.118317,19.921112,,,0,,,
stop_135_18103,,"Zielonki UG","",50.118125,19.924131,,,0,,,
stop_135_18104,,"Zielonki UG","",50.117995,19.922188,,,0,,,
stop_136_18201,,"Zielonki Skrzyzowanie","",50.108355,19.924217,,,0,,,
stop_136_18202,,"Zielonki Skrzyzowanie","",50.107622,19.924358,,,0,,,
stop_137_18301,,"Trojanowice Strugi (nz)","",50.1346,19.9055,,,0,,,
stop_137_18302,,"Trojanowice Strugi (nz)","",50.1346,19.9055,,,0,,,
stop_138_18401,,"Trojanowice","",50.13959,19.89875,,,0,,,
stop_138_18402,,"Trojanowice","",50.13909,19.89924,,,0,,,
stop_139_18501,,"Januszowice","",50.14938,19.8932,,,0,,,
stop_139_18502,,"Januszowice","",50.14967,19.89285,,,0,,,
stop_142_19001,,"Przybyslawice I (nz)","",50.1635,19.8991,,,0,,,
stop_142_19002,,"Przybyslawice I (nz)","",50.1635,19.8991,,,0,,,
stop_143_19101,,"Przybyslawice II","",50.1572,19.8952,,,0,,,
stop_143_19102,,"Przybyslawice II","",50.1572,19.8952,,,0,,,
stop_144_19201,,"Droga do Rzaski (nz)","",50.102728,19.861479,,,0,,,
stop_144_19202,,"Droga do Rzaski (nz)","",50.102324,19.862122,,,0,,,
stop_144_19203,,"Droga do Rzaski (nz)","",50.101126,19.860715,,,0,,,
stop_145_19301,,"Rzaska Jednostka Wojskowa (nz)","",50.099639,19.855577,,,0,,,
stop_145_19302,,"Rzaska Jednostka Wojskowa (nz)","",50.099785,19.856451,,,0,,,
stop_146_19401,,"Rzaska UR (nz)","",50.096813,19.845529,,,0,,,
stop_146_19402,,"Rzaska UR (nz)","",50.096997,19.846009,,,0,,,
stop_148_19601,,"Rzaska Autostrada (nz)","",50.105535,19.835831,,,0,,,
stop_149_19701,,"Modlniczka Mala","",50.108369,19.835099,,,0,,,
stop_149_19702,,"Modlniczka Mala","",50.107806,19.837963,,,0,,,
stop_149_19703,,"Modlniczka Mala","",50.107272,19.836738,,,0,,,
stop_150_19801,,"Zabierzow Dzialki (nz)","",50.109098,19.825674,,,0,,,
stop_150_19802,,"Zabierzow Dzialki (nz)","",50.109133,19.826468,,,0,,,
stop_151_19901,,"Zabierzow","",50.107534,19.816498,,,0,,,
stop_151_19902,,"Zabierzow","",50.108129,19.816702,,,0,,,
stop_152_20001,,"Zabierzow Sklep","",50.112206,19.81017,,,0,,,
stop_152_20002,,"Zabierzow Sklep","",50.10975,19.815568,,,0,,,
stop_153_20101,,"Zabierzow Piekarnia","",50.112915,19.800984,,,0,,,
stop_153_20102,,"Zabierzow Piekarnia","",50.112763,19.804621,,,0,,,
stop_154_20201,,"Zabierzow I","",50.115579,19.792535,,,0,,,
stop_154_20202,,"Zabierzow I","",50.115884,19.790894,,,0,,,
stop_155_20301,,"Zabierzow Piaski (nz)","",50.117032,19.782734,,,0,,,
stop_155_20302,,"Zabierzow Piaski (nz)","",50.116956,19.784447,,,0,,,
stop_156_20401,,"Zabierzow PKP","",50.117985,19.800831,,,0,,,
stop_156_20402,,"Zabierzow PKP","",50.117989,19.800767,,,0,,,
stop_158_20901,,"Zelkow Wola (nz)","",50.154269,19.799774,,,0,,,
stop_158_20902,,"Zelkow Wola (nz)","",50.15392,19.79952,,,0,,,
stop_159_21001,,"Zelkow Staw","",50.159619,19.796071,,,0,,,
stop_159_21002,,"Zelkow Staw","",50.159612,19.795978,,,0,,,
stop_161_21301,,"Zabierzow Osrodek Zdrowia","",50.117251,19.774781,,,0,,,
stop_161_21302,,"Zabierzow Osrodek Zdrowia","",50.117009,19.778126,,,0,,,
stop_162_21401,,"Kochanow I (nz)","",50.116125,19.761469,,,0,,,
stop_162_21402,,"Kochanow I (nz)","",50.11626,19.763763,,,0,,,
stop_163_21501,,"Kochanow","",50.114819,19.747394,,,0,,,
stop_163_21502,,"Kochanow","",50.114903,19.748624,,,0,,,
stop_164_21601,,"Droga do Niegoszowic (nz)","",50.113054,19.734243,,,0,,,
stop_164_21602,,"Droga do Niegoszowic (nz)","",50.112956,19.73531,,,0,,,
stop_165_21701,,"Rudawa (nz)","",50.113861,19.709171,,,0,,,
stop_165_21702,,"Rudawa (nz)","",50.113522,19.713305,,,0,,,
stop_166_21801,,"Mlynka I (nz)","",50.113707,19.696862,,,0,,,
stop_166_21802,,"Mlynka I (nz)","",50.113939,19.69749,,,0,,,
stop_167_21901,,"Skala Kmity (nz)","",50.098194,19.805333,,,0,,,
stop_167_21902,,"Skala Kmity (nz)","",50.097266,19.804562,,,0,,,
stop_168_22001,,"Szczyglice","",50.093327,19.804643,,,0,,,
stop_168_22002,,"Szczyglice","",50.09285,19.803896,,,0,,,
stop_168_22003,,"Szczyglice","",50.094048,19.803886,,,0,,,
stop_169_22101,,"Balice Autostrada (nz)","",50.084927,19.804163,,,0,,,
stop_169_22102,,"Balice Autostrada (nz)","",50.084283,19.807201,,,0,,,
stop_169_22103,,"Balice Autostrada (nz)","",50.08577,19.81016,,,0,,,
stop_169_22104,,"Balice Autostrada (nz)","",50.086475,19.809125,,,0,,,
stop_169_22106,,"Balice Autostrada (nz)","",50.085288,19.808449,,,0,,,
stop_170_22201,,"Balice Szkola","",50.084852,19.793837,,,0,,,
stop_170_22202,,"Balice Szkola","",50.083701,19.790318,,,0,,,
stop_172_22401,,"Szczyglice Most (nz)","",50.087688,19.817914,,,0,,,
stop_172_22402,,"Szczyglice Most (nz)","",50.087668,19.817939,,,0,,,
stop_173_22601,,"Balice I (nz)","",50.076617,19.808073,,,0,,,
stop_174_22801,,"Chrosna Studnia (nz)","",50.081369,19.71624,,,0,,,
stop_174_22802,,"Chrosna Studnia (nz)","",50.081339,19.71602,,,0,,,
stop_175_22901,,"Chrosna Sklep (nz)","",50.079659,19.721052,,,0,,,
stop_175_22902,,"Chrosna Sklep (nz)","",50.079614,19.721196,,,0,,,
stop_176_23001,,"Chrosna Kapliczka (nz)","",50.079592,19.729409,,,0,,,
stop_176_23002,,"Chrosna Kapliczka (nz)","",50.079671,19.730272,,,0,,,
stop_177_23101,,"Morawica Mostek (nz)","",50.082753,19.738881,,,0,,,
stop_177_23102,,"Morawica Mostek (nz)","",50.082744,19.738882,,,0,,,
stop_178_23201,,"Morawica Krzyzowka","",50.080902,19.749416,,,0,,,
stop_178_23202,,"Morawica Krzyzowka","",50.080615,19.750087,,,0,,,
stop_178_23203,,"Morawica Krzyzowka","",50.080511,19.749649,,,0,,,
stop_182_23601,,"Aleksandrowice Osiedle (nz)","",50.081693,19.769276,,,0,,,
stop_182_23602,,"Aleksandrowice Osiedle (nz)","",50.081603,19.769187,,,0,,,
stop_183_23801,,"Brzoskwinia Koziary (nz)","",50.090637,19.734864,,,0,,,
stop_183_23802,,"Brzoskwinia Koziary (nz)","",50.090561,19.735204,,,0,,,
stop_184_23901,,"Brzoskwinia Sklep","",50.095668,19.718599,,,0,,,
stop_184_23902,,"Brzoskwinia Sklep","",50.095484,19.718359,,,0,,,
stop_185_24001,,"Brzoskwinia Kamyk (nz)","",50.093262,19.710067,,,0,,,
stop_185_24002,,"Brzoskwinia Kamyk (nz)","",50.093253,19.710129,,,0,,,
stop_187_24201,,"Kopiec Kosciuszki","",50.055319,19.892716,,,0,,,
stop_190_25201,,"Cholerzyn Skrzyzowanie (nz)","",50.057954,19.762092,,,0,,,
stop_190_25202,,"Cholerzyn Skrzyzowanie (nz)","",50.057918,19.761978,,,0,,,
stop_191_25301,,"Cholerzyn Sklep (nz)","",50.059198,19.768928,,,0,,,
stop_191_25302,,"Cholerzyn Sklep (nz)","",50.05917,19.768888,,,0,,,
stop_193_25701,,"Kryspinow Sanka (nz)","",50.04194,19.78667,,,0,,,
stop_193_25702,,"Kryspinow Sanka (nz)","",50.04243,19.78882,,,0,,,
stop_194_25801,,"Kryspinow","",50.04367,19.79446,,,0,,,
stop_194_25802,,"Kryspinow","",50.0417,19.79827,,,0,,,
stop_194_25803,,"Kryspinow","",50.043636,19.798073,,,0,,,
stop_195_26001,,"Bielany","",50.043286,19.820653,,,0,,,
stop_195_26002,,"Bielany","",50.043349,19.819993,,,0,,,
stop_195_26003,,"Bielany","",50.043012,19.819303,,,0,,,
stop_196_26101,,"Bielany Szkola","",50.044151,19.825635,,,0,,,
stop_196_26102,,"Bielany Szkola","",50.044119,19.827715,,,0,,,
stop_196_26103,,"Bielany Szkola","",50.04431,19.82739,,,0,,,
stop_197_26201,,"Bielany Klasztor (nz)","",50.043473,19.830888,,,0,,,
stop_197_26202,,"Bielany Klasztor (nz)","",50.043332,19.831303,,,0,,,
stop_198_26301,,"Wodociagi (nz)","",50.04182,19.84117,,,0,,,
stop_198_26302,,"Wodociagi (nz)","",50.041147,19.840016,,,0,,,
stop_199_26401,,"Skalna (nz)","",50.038898,19.830997,,,0,,,
stop_199_26402,,"Skalna (nz)","",50.03889,19.831601,,,0,,,
stop_200_26501,,"Bielanska (nz)","",50.036502,19.8253,,,0,,,
stop_200_26502,,"Bielanska (nz)","",50.036882,19.82612,,,0,,,
stop_201_26901,,"Piekary Sklep (nz)","",50.026446,19.797396,,,0,,,
stop_201_26902,,"Piekary Sklep (nz)","",50.026142,19.797473,,,0,,,
stop_203_27201,,"Bielanskie Skaly (nz)","",50.044122,19.850832,,,0,,,
stop_203_27202,,"Bielanskie Skaly (nz)","",50.044117,19.851466,,,0,,,
stop_204_27301,,"Na Krepaku (nz)","",50.04518,19.859337,,,0,,,
stop_204_27302,,"Na Krepaku (nz)","",50.045666,19.860138,,,0,,,
stop_204_27303,,"Na Krepaku (nz)","",50.045174,19.86063,,,0,,,
stop_205_27401,,"Zaskale (nz)","",50.046782,19.865112,,,0,,,
stop_205_27402,,"Zaskale (nz)","",50.046806,19.865629,,,0,,,
stop_206_27501,,"Przegorzaly","",50.046822,19.871175,,,0,,,
stop_206_27502,,"Przegorzaly","",50.046782,19.870962,,,0,,,
stop_207_27601,,"Glinnik (nz)","",50.046726,19.882331,,,0,,,
stop_207_27602,,"Glinnik (nz)","",50.047114,19.883513,,,0,,,
stop_212_28201,,"Kaszow II (nz)","",50.038926,19.719901,,,0,,,
stop_212_28202,,"Kaszow II (nz)","",50.038876,19.720883,,,0,,,
stop_213_28301,,"Kaszow","",50.039306,19.725597,,,0,,,
stop_213_28391,,"Kaszow","",50.039306,19.725597,,,0,,,
stop_214_28401,,"Kaszow Tyralowka (nz)","",50.03965,19.73269,,,0,,,
stop_214_28402,,"Kaszow Tyralowka (nz)","",50.039586,19.734315,,,0,,,
stop_215_28501,,"Kaszow lysa Gora (nz)","",50.03759,19.74387,,,0,,,
stop_215_28502,,"Kaszow lysa Gora (nz)","",50.037258,19.744756,,,0,,,
stop_216_28601,,"Liszki Krzyzowka","",50.03467,19.75747,,,0,,,
stop_216_28602,,"Liszki Krzyzowka","",50.03534,19.75918,,,0,,,
stop_217_28701,,"Liszki UG","",50.038621,19.767448,,,0,,,
stop_217_28702,,"Liszki UG","",50.038513,19.768287,,,0,,,
stop_217_28703,,"Liszki UG","",50.038792,19.768546,,,0,,,
stop_218_28901,,"Liszki I (nz)","",50.038894,19.774622,,,0,,,
stop_218_28902,,"Liszki I (nz)","",50.038892,19.774103,,,0,,,
stop_222_29601,,"Raczna Kapliczka (nz)","",50.015504,19.768659,,,0,,,
stop_222_29602,,"Raczna Kapliczka (nz)","",50.015486,19.768689,,,0,,,
stop_222_29603,,"Raczna Kapliczka (nz)","",50.015324,19.769296,,,0,,,
stop_222_29604,,"Raczna Kapliczka (nz)","",50.015283,19.769107,,,0,,,
stop_227_30601,,"Raczna Osiedle (nz)","",50.001248,19.75553,,,0,,,
stop_227_30602,,"Raczna Osiedle (nz)","",50.001372,19.755416,,,0,,,
stop_229_31001,,"Malczewskiego (nz)","",50.048734,19.90359,,,0,,,
stop_229_31002,,"Malczewskiego (nz)","",50.04901,19.904129,,,0,,,
stop_229_31003,,"Malczewskiego (nz)","",50.048875,19.90162,,,0,,,
stop_229_31004,,"Malczewskiego (nz)","",50.049831,19.903042,,,0,,,
stop_230_31102,,"Salwator","",50.052554,19.914276,,,0,,,
stop_230_31104,,"Salwator","",50.0528,19.9152,,,0,,,
stop_230_31105,,"Salwator","",50.05322,19.91688,,,0,,,
stop_231_31301,,"Komorowskiego","",50.053472,19.921778,,,0,,,
stop_231_31302,,"Komorowskiego","",50.053347,19.921671,,,0,,,
stop_232_31401,,"Slonecznikowa","",50.059784,19.894455,,,0,,,
stop_232_31402,,"Slonecznikowa","",50.058663,19.897507,,,0,,,
stop_233_31501,,"Hofmana","",50.057535,19.900176,,,0,,,
stop_234_31601,,"Przegon","",50.056457,19.90531,,,0,,,
stop_234_31602,,"Przegon","",50.056412,19.904581,,,0,,,
stop_235_31701,,"Instytut Reumatologii","",50.05774,19.914228,,,0,,,
stop_235_31702,,"Instytut Reumatologii","",50.057761,19.913832,,,0,,,
stop_237_31904,,"Jubilat","",50.056586,19.927038,,,0,,,
stop_237_31905,,"Jubilat","",50.05606,19.926787,,,0,,,
stop_238_32101,,"Uniwersytet Jagiellonski","",50.060301,19.930608,,,0,,,
stop_238_32102,,"Uniwersytet Jagiellonski","",50.060383,19.931575,,,0,,,
stop_239_32201,,"Filharmonia","",50.05813,19.93353,,,0,,,
stop_239_32203,,"Filharmonia","",50.05978,19.9327,,,0,,,
stop_240_32601,,"Konopnickiej","",50.052835,19.929522,,,0,,,
stop_240_32602,,"Konopnickiej","",50.052814,19.929261,,,0,,,
stop_241_32701,,"Wegrzce Starostwo Powiatowe","",50.114862,19.967163,,,0,,,
stop_241_32702,,"Wegrzce Starostwo Powiatowe","",50.114099,19.966465,,,0,,,
stop_242_32801,,"Wegrzce","",50.120485,19.96729,,,0,,,
stop_242_32802,,"Wegrzce","",50.119351,19.966972,,,0,,,
stop_242_32803,,"Wegrzce","",50.120012,19.96673,,,0,,,
stop_242_32804,,"Wegrzce","",50.119987,19.967598,,,0,,,
stop_242_32894,,"Wegrzce","",50.120012,19.96673,,,0,,,
stop_243_33001,,"Bibice (nz)","",50.133376,19.967284,,,0,,,
stop_243_33002,,"Bibice (nz)","",50.132919,19.966821,,,0,,,
stop_243_33003,,"Bibice (nz)","",50.1329,19.9668,,,0,,,
stop_244_33101,,"Michalowice (nz)","",50.151535,19.983848,,,0,,,
stop_244_33102,,"Michalowice (nz)","",50.151011,19.983673,,,0,,,
stop_245_33201,,"Michalowice Komora (nz)","",50.142403,19.970944,,,0,,,
stop_245_33202,,"Michalowice Komora (nz)","",50.14141,19.970245,,,0,,,
stop_245_33203,,"Michalowice Komora (nz)","",50.142632,19.970001,,,0,,,
stop_246_33301,,"Michalowice I","",50.158746,19.980534,,,0,,,
stop_246_33302,,"Michalowice I","",50.158407,19.980365,,,0,,,
stop_247_33501,,"Michalowice Lecznica (nz)","",50.16541,19.968923,,,0,,,
stop_247_33502,,"Michalowice Lecznica (nz)","",50.165308,19.967672,,,0,,,
stop_248_33601,,"Michalowice II (nz)","",50.168044,19.977911,,,0,,,
stop_248_33602,,"Michalowice II (nz)","",50.165242,19.978488,,,0,,,
stop_257_35201,,"Batowice Kapliczka","",50.111589,20.01642,,,0,,,
stop_257_35202,,"Batowice Kapliczka","",50.111261,20.015402,,,0,,,
stop_260_35701,,"Poczta Glowna","",50.059874,19.942497,,,0,,,
stop_260_35703,,"Poczta Glowna","",50.059232,19.941685,,,0,,,
stop_260_35704,,"Poczta Glowna","",50.059348,19.942735,,,0,,,
stop_261_35802,,"Starowislna","",50.056385,19.944946,,,0,,,
stop_261_35807,,"Starowislna","",50.05727,19.94614,,,0,,,
stop_262_35902,,"Stradom","",50.05204,19.94119,,,0,,,
stop_264_36201,,"Miodowa","",50.053889,19.948162,,,0,,,
stop_264_36202,,"Miodowa","",50.053365,19.948814,,,0,,,
stop_266_36501,,"Rondo Grzegorzeckie","",50.057913,19.960287,,,0,,,
stop_266_36503,,"Rondo Grzegorzeckie","",50.058463,19.959231,,,0,,,
stop_266_36504,,"Rondo Grzegorzeckie","",50.056972,19.958944,,,0,,,
stop_266_36507,,"Rondo Grzegorzeckie","",50.05842,19.95944,,,0,,,
stop_267_36703,,"Francesco Nullo","",50.06001,19.967643,,,0,,,
stop_267_36704,,"Francesco Nullo","",50.060118,19.966693,,,0,,,
stop_268_36903,,"Ofiar Dabia","",50.059011,19.975414,,,0,,,
stop_268_36904,,"Ofiar Dabia","",50.059653,19.977222,,,0,,,
stop_268_36905,,"Ofiar Dabia","",50.059704,19.975325,,,0,,,
stop_269_37004,,"Dabie","",50.060925,19.97992,,,0,,,
stop_269_37005,,"Dabie","",50.060896,19.979171,,,0,,,
stop_270_37401,,"Elektrocieplownia Krakow","",50.057088,20.001777,,,0,,,
stop_270_37402,,"Elektrocieplownia Krakow","",50.056347,20.00024,,,0,,,
stop_271_37502,,"Mistrzejowice","",50.0955,19.994632,,,0,,,
stop_271_37503,,"Mistrzejowice","",50.095594,19.993705,,,0,,,
stop_271_37504,,"Mistrzejowice","",50.095914,19.996223,,,0,,,
stop_272_37703,,"Os. Zlotego Wieku","",50.093983,20.004642,,,0,,,
stop_272_37704,,"Os. Zlotego Wieku","",50.09393,20.004145,,,0,,,
stop_273_37802,,"Os. Piastow","",50.100639,20.013194,,,0,,,
stop_273_37803,,"Os. Piastow","",50.100919,20.012949,,,0,,,
stop_274_37903,,"Piasta Kolodzieja","",50.098629,20.013359,,,0,,,
stop_274_37904,,"Piasta Kolodzieja","",50.097951,20.013097,,,0,,,
stop_274_37905,,"Piasta Kolodzieja","",50.098083,20.013667,,,0,,,
stop_275_38001,,"Popielidow","",50.099312,20.017671,,,0,,,
stop_275_38002,,"Popielidow","",50.099451,20.019697,,,0,,,
stop_276_38101,,"Kruszwicka","",50.097694,20.019917,,,0,,,
stop_276_38102,,"Kruszwicka","",50.097472,20.01925,,,0,,,
stop_277_38203,,"Kleeberga","",50.095686,20.012894,,,0,,,
stop_277_38204,,"Kleeberga","",50.095929,20.012793,,,0,,,
stop_277_38205,,"Kleeberga","",50.09618,20.014226,,,0,,,
stop_278_38303,,"Rondo Piastowskie","",50.094457,20.010795,,,0,,,
stop_278_38304,,"Rondo Piastowskie","",50.094197,20.011218,,,0,,,
stop_279_38401,,"leczycka","",50.092847,20.006316,,,0,,,
stop_279_38402,,"leczycka","",50.092931,20.006467,,,0,,,
stop_280_38501,,"Cedynska","",50.090236,20.004281,,,0,,,
stop_281_38601,,"Os. Kalinowe","",50.091479,20.010345,,,0,,,
stop_281_38602,,"Os. Kalinowe","",50.091428,20.01009,,,0,,,
stop_282_38701,,"Kupaly","",50.095395,20.017485,,,0,,,
stop_282_38702,,"Kupaly","",50.094031,20.014825,,,0,,,
stop_283_38803,,"Dunikowskiego","",50.092522,20.015748,,,0,,,
stop_283_38804,,"Dunikowskiego","",50.092129,20.015885,,,0,,,
stop_283_38805,,"Dunikowskiego","",50.090679,20.016741,,,0,,,
stop_283_38806,,"Dunikowskiego","",50.091027,20.016956,,,0,,,
stop_284_39001,,"Os. Strusia","",50.08649,20.00943,,,0,,,
stop_284_39002,,"Os. Strusia","",50.086741,20.009122,,,0,,,
stop_285_39101,,"Os. Na Lotnisku","",50.086626,20.013854,,,0,,,
stop_285_39102,,"Os. Na Lotnisku","",50.085698,20.014035,,,0,,,
stop_285_39103,,"Os. Na Lotnisku","",50.086132,20.012923,,,0,,,
stop_286_39203,,"DH Wanda","",50.084255,20.020711,,,0,,,
stop_286_39204,,"DH Wanda","",50.084924,20.020356,,,0,,,
stop_286_39205,,"DH Wanda","",50.085636,20.019755,,,0,,,
stop_286_39206,,"DH Wanda","",50.085769,20.019429,,,0,,,
stop_288_39501,,"Nowolipki (nz)","",50.093391,20.032636,,,0,,,
stop_288_39502,,"Nowolipki (nz)","",50.092997,20.033679,,,0,,,
stop_290_39701,,"Zajezdnia Bienczyce","",50.091294,20.032791,,,0,,,
stop_290_39702,,"Zajezdnia Bienczyce","",50.091255,20.032834,,,0,,,
stop_291_40201,,"Os. Jagiellonskie","",50.087942,20.027571,,,0,,,
stop_291_40202,,"Os. Jagiellonskie","",50.087798,20.027767,,,0,,,
stop_292_40301,,"Arka","",50.08344,20.03052,,,0,,,
stop_292_40302,,"Arka","",50.08408,20.029837,,,0,,,
stop_295_40601,,"Medweckiego","",50.076054,20.00735,,,0,,,
stop_295_40602,,"Medweckiego","",50.076296,20.007302,,,0,,,
stop_296_40703,,"Czyzyny","",50.073794,20.012479,,,0,,,
stop_296_40704,,"Czyzyny","",50.074167,20.011234,,,0,,,
stop_297_40805,,"Rondo Czyzynskie","",50.073815,20.016595,,,0,,,
stop_297_40806,,"Rondo Czyzynskie","",50.074369,20.018494,,,0,,,
stop_297_40807,,"Rondo Czyzynskie","",50.072389,20.016646,,,0,,,
stop_297_40808,,"Rondo Czyzynskie","",50.073052,20.019043,,,0,,,
stop_298_40903,,"Centralna","",50.069323,20.013167,,,0,,,
stop_298_40904,,"Centralna","",50.068794,20.012515,,,0,,,
stop_298_40905,,"Centralna","",50.069577,20.012602,,,0,,,
stop_299_41303,,"Os. Kolorowe","",50.072489,20.028386,,,0,,,
stop_299_41304,,"Os. Kolorowe","",50.072063,20.029981,,,0,,,
stop_300_41501,,"Aleja Przyjazni","",50.075196,20.033906,,,0,,,
stop_300_41502,,"Aleja Przyjazni","",50.075372,20.034592,,,0,,,
stop_300_41503,,"Aleja Przyjazni","",50.07519,20.03409,,,0,,,
stop_301_41601,,"Aleja Roz","",50.075272,20.038419,,,0,,,
stop_301_41602,,"Aleja Roz","",50.074834,20.038944,,,0,,,
stop_301_41603,,"Aleja Roz","",50.075048,20.037704,,,0,,,
stop_302_41701,,"zeromskiego","",50.078038,20.039221,,,0,,,
stop_302_41702,,"zeromskiego","",50.079153,20.038536,,,0,,,
stop_303_41803,,"Os. Zgody","",50.076454,20.031357,,,0,,,
stop_303_41804,,"Os. Zgody","",50.077218,20.030671,,,0,,,
stop_304_42003,,"Teatr Ludowy","",50.082041,20.031989,,,0,,,
stop_304_42004,,"Teatr Ludowy","",50.082238,20.032995,,,0,,,
stop_304_42005,,"Teatr Ludowy","",50.081109,20.033949,,,0,,,
stop_304_42006,,"Teatr Ludowy","",50.08127,20.033507,,,0,,,
stop_305_42101,,"Os. Gorali","",50.081216,20.040524,,,0,,,
stop_305_42102,,"Os. Gorali","",50.081098,20.041304,,,0,,,
stop_306_42201,,"Os. Zielone","",50.079056,20.045441,,,0,,,
stop_306_42202,,"Os. Zielone","",50.079459,20.045996,,,0,,,
stop_307_42303,,"Struga","",50.074431,20.047126,,,0,,,
stop_307_42304,,"Struga","",50.075096,20.046594,,,0,,,
stop_307_42305,,"Struga","",50.075028,20.047601,,,0,,,
stop_307_42306,,"Struga","",50.074585,20.045824,,,0,,,
stop_307_42307,,"Struga","",50.074801,20.047645,,,0,,,
stop_308_42403,,"Os. Na Skarpie","",50.069696,20.04695,,,0,,,
stop_308_42404,,"Os. Na Skarpie","",50.069556,20.046364,,,0,,,
stop_308_42405,,"Os. Na Skarpie","",50.068497,20.045224,,,0,,,
stop_309_42501,,"Szpital zeromskiego","",50.066403,20.047031,,,0,,,
stop_309_42502,,"Szpital zeromskiego","",50.066536,20.046545,,,0,,,
stop_310_42701,,"Klasztor Cystersow","",50.065219,20.052078,,,0,,,
stop_310_42702,,"Klasztor Cystersow","",50.064189,20.052179,,,0,,,
stop_311_42801,,"Os. Wandy","",50.069395,20.048618,,,0,,,
stop_312_42903,,"Klasztorna","",50.068809,20.051839,,,0,,,
stop_312_42904,,"Klasztorna","",50.068828,20.050312,,,0,,,
stop_313_43001,,"Os. Willowe","",50.072756,20.05339,,,0,,,
stop_313_43002,,"Os. Willowe","",50.072243,20.053787,,,0,,,
stop_314_43101,,"Orkana","",50.073293,20.050208,,,0,,,
stop_315_43201,,"Bulwarowa (nz)","",50.075126,20.053012,,,0,,,
stop_315_43202,,"Bulwarowa (nz)","",50.075348,20.052778,,,0,,,
stop_315_43203,,"Bulwarowa (nz)","",50.076141,20.051679,,,0,,,
stop_316_43403,,"Wiadukty (nz)","",50.088103,20.056008,,,0,,,
stop_317_43503,,"Darwina","",50.091748,20.0599,,,0,,,
stop_317_43504,,"Darwina","",50.091336,20.058588,,,0,,,
stop_317_43505,,"Darwina","",50.090221,20.059952,,,0,,,
stop_317_43506,,"Darwina","",50.090464,20.059412,,,0,,,
stop_318_43601,,"Os. Na Stoku Szkola","",50.093566,20.056212,,,0,,,
stop_318_43602,,"Os. Na Stoku Szkola","",50.093194,20.056385,,,0,,,
stop_319_43701,,"Architektow","",50.096857,20.054605,,,0,,,
stop_319_43702,,"Architektow","",50.096917,20.055472,,,0,,,
stop_319_43703,,"Architektow","",50.097379,20.054633,,,0,,,
stop_321_44202,,"Wzgorza Krzeslawickie","",50.096041,20.065571,,,0,,,
stop_321_44203,,"Wzgorza Krzeslawickie","",50.094859,20.064768,,,0,,,
stop_321_44204,,"Wzgorza Krzeslawickie","",50.0949,20.0653,,,0,,,
stop_321_44205,,"Wzgorza Krzeslawickie","",50.095438,20.064632,,,0,,,
stop_322_44301,,"Grebalow (nz)","",50.101099,20.069169,,,0,,,
stop_322_44302,,"Grebalow (nz)","",50.101412,20.069571,,,0,,,
stop_323_44501,,"Kantorowice","",50.104193,20.062058,,,0,,,
stop_323_44502,,"Kantorowice","",50.104215,20.061698,,,0,,,
stop_323_44503,,"Kantorowice","",50.104632,20.061589,,,0,,,
stop_324_44701,,"Zeslawice","",50.106328,20.043824,,,0,,,
stop_325_44801,,"Cmentarz Grebalow","",50.091104,20.070165,,,0,,,
stop_325_44802,,"Cmentarz Grebalow","",50.091064,20.070248,,,0,,,
stop_329_45303,,"Brama nr 5 (nz)","",50.068721,20.091547,,,0,,,
stop_329_45304,,"Brama nr 5 (nz)","",50.067897,20.090892,,,0,,,
stop_330_45501,,"Gwarecka (nz)","",50.06651,20.109557,,,0,,,
stop_330_45502,,"Gwarecka (nz)","",50.066361,20.109604,,,0,,,
stop_331_45601,,"Suchy Jar (nz)","",50.069674,20.107493,,,0,,,
stop_331_45602,,"Suchy Jar (nz)","",50.069691,20.107839,,,0,,,
stop_332_45703,,"Koksochemia (nz)","",50.071784,20.104545,,,0,,,
stop_332_45704,,"Koksochemia (nz)","",50.071695,20.104569,,,0,,,
stop_333_45802,,"Pleszow","",50.072847,20.117706,,,0,,,
stop_333_45892,,"Pleszow","",50.0728,20.1184,,,0,,,
stop_333_329974,,"Pleszow","",50.072847,20.117706,,,0,,,
stop_334_45904,,"Kombinat","",50.078759,20.066157,,,0,,,
stop_334_45905,,"Kombinat","",50.079139,20.066333,,,0,,,
stop_334_45906,,"Kombinat","",50.079425,20.065092,,,0,,,
stop_334_45996,,"Kombinat","",50.0791,20.0653,,,0,,,
stop_335_46403,,"Elektromontaz (nz)","",50.088156,20.066576,,,0,,,
stop_335_46404,,"Elektromontaz (nz)","",50.087888,20.062717,,,0,,,
stop_335_46405,,"Elektromontaz (nz)","",50.08797,20.06257,,,0,,,
stop_335_46406,,"Elektromontaz (nz)","",50.087965,20.06272,,,0,,,
stop_336_46503,,"Zajezdnia Nowa Huta","",50.083384,20.065694,,,0,,,
stop_336_46504,,"Zajezdnia Nowa Huta","",50.084285,20.065725,,,0,,,
stop_337_46701,,"Lubocza PKP (nz)","",50.09121,20.07239,,,0,,,
stop_337_46702,,"Lubocza PKP (nz)","",50.088758,20.073737,,,0,,,
stop_337_46771,,"Lubocza PKP (nz)","",50.09121,20.07239,,,0,,,
stop_338_46801,,"Lubocza Bugaj (nz)","",50.092075,20.074019,,,0,,,
stop_338_46802,,"Lubocza Bugaj (nz)","",50.092301,20.075083,,,0,,,
stop_339_46901,,"Lubocza Przychodnia","",50.095004,20.084591,,,0,,,
stop_339_46902,,"Lubocza Przychodnia","",50.094824,20.083595,,,0,,,
stop_340_47001,,"Lubocza Szkola","",50.094992,20.093653,,,0,,,
stop_340_47002,,"Lubocza Szkola","",50.094861,20.094583,,,0,,,
stop_340_47003,,"Lubocza Szkola","",50.09621,20.09358,,,0,,,
stop_341_47101,,"Lubocza Trafo (nz)","",50.094386,20.100254,,,0,,,
stop_341_47102,,"Lubocza Trafo (nz)","",50.094339,20.100201,,,0,,,
stop_342_47201,,"Luborzyca","",50.146441,20.109366,,,0,,,
stop_342_47291,,"Luborzyca","",50.146426,20.109266,,,0,,,
stop_343_47401,,"Dojazdow Dzialki (nz)","",50.1309,20.1077,,,0,,,
stop_343_47402,,"Dojazdow Dzialki (nz)","",50.1309,20.1077,,,0,,,
stop_344_47501,,"Dojazdow PKS","",50.127305,20.102651,,,0,,,
stop_344_47502,,"Dojazdow PKS","",50.12699,20.102084,,,0,,,
stop_345_47601,,"Sulechow (nz)","",50.121967,20.096813,,,0,,,
stop_345_47602,,"Sulechow (nz)","",50.121171,20.09507,,,0,,,
stop_346_47701,,"Prusy WSR (nz)","",50.1191,20.092162,,,0,,,
stop_346_47702,,"Prusy WSR (nz)","",50.118277,20.091183,,,0,,,
stop_347_47801,,"Prusy Szkola (nz)","",50.113812,20.08514,,,0,,,
stop_347_47802,,"Prusy Szkola (nz)","",50.113849,20.085014,,,0,,,
stop_349_48001,,"luczanowice","",50.107249,20.110848,,,0,,,
stop_349_48091,,"luczanowice","",50.107249,20.110848,,,0,,,
stop_350_48201,,"luczanowice Skrzyzowanie","",50.1115,20.120167,,,0,,,
stop_350_48202,,"luczanowice Skrzyzowanie","",50.111447,20.120107,,,0,,,
stop_351_48301,,"Wadow Osiedle (nz)","",50.105639,20.122056,,,0,,,
stop_351_48302,,"Wadow Osiedle (nz)","",50.105221,20.122119,,,0,,,
stop_352_48401,,"Wadow Szkola","",50.100234,20.125901,,,0,,,
stop_352_48402,,"Wadow Szkola","",50.100583,20.125528,,,0,,,
stop_353_48501,,"Wadow","",50.097375,20.124861,,,0,,,
stop_353_48502,,"Wadow","",50.097236,20.124194,,,0,,,
stop_354_48601,,"Wadowska (nz)","",50.096491,20.119069,,,0,,,
stop_354_48602,,"Wadowska (nz)","",50.096489,20.119299,,,0,,,
stop_355_48701,,"Wegrzynowice","",50.115352,20.153433,,,0,,,
stop_356_48801,,"Wegrzynowice Centrum (nz)","",50.110371,20.154781,,,0,,,
stop_356_48802,,"Wegrzynowice Centrum (nz)","",50.111189,20.155896,,,0,,,
stop_357_49201,,"Wadow Dzialki (nz)","",50.092782,20.139959,,,0,,,
stop_357_49202,,"Wadow Dzialki (nz)","",50.09279,20.13941,,,0,,,
stop_360_49901,,"Wrozenice","",50.113631,20.189603,,,0,,,
stop_360_49991,,"Wrozenice","",50.113631,20.189603,,,0,,,
stop_361_50201,,"Resztowka","",50.09854,20.178559,,,0,,,
stop_361_50202,,"Resztowka","",50.098825,20.178156,,,0,,,
stop_362_50301,,"Zablocie Koscielnickie (nz)","",50.094824,20.174245,,,0,,,
stop_362_50302,,"Zablocie Koscielnickie (nz)","",50.094905,20.174122,,,0,,,
stop_363_50501,,"Blonia Koscielnickie (nz)","",50.084361,20.166237,,,0,,,
stop_363_50502,,"Blonia Koscielnickie (nz)","",50.084404,20.16586,,,0,,,
stop_364_50601,,"Janowka (nz)","",50.079411,20.160196,,,0,,,
stop_364_50602,,"Janowka (nz)","",50.079429,20.160298,,,0,,,
stop_365_50801,,"Wyciaze (nz)","",50.076666,20.153218,,,0,,,
stop_365_50802,,"Wyciaze (nz)","",50.076881,20.153928,,,0,,,
stop_365_50803,,"Wyciaze (nz)","",50.077127,20.154138,,,0,,,
stop_365_50804,,"Wyciaze (nz)","",50.076794,20.154961,,,0,,,
stop_365_50892,,"Wyciaze (nz)","",50.077434,20.153936,,,0,,,
stop_365_50893,,"Wyciaze (nz)","",50.07729,20.154078,,,0,,,
stop_366_51001,,"Igolomska (nz)","",50.073492,20.151375,,,0,,,
stop_366_51002,,"Igolomska (nz)","",50.073386,20.151501,,,0,,,
stop_366_51071,,"Igolomska (nz)","",50.076221,20.149178,,,0,,,
stop_366_51091,,"Igolomska (nz)","",50.076219,20.148735,,,0,,,
stop_367_51101,,"Zaklad Przerobki (nz)","",50.07354,20.126816,,,0,,,
stop_367_51102,,"Zaklad Przerobki (nz)","",50.073636,20.126784,,,0,,,
stop_368_51201,,"Branice Pagorek (nz)","",50.068651,20.139798,,,0,,,
stop_368_51202,,"Branice Pagorek (nz)","",50.068766,20.140096,,,0,,,
stop_369_51301,,"Branice Na Dole (nz)","",50.065522,20.141219,,,0,,,
stop_369_51302,,"Branice Na Dole (nz)","",50.063898,20.141461,,,0,,,
stop_370_51501,,"Wyciaze Sklep (nz)","",50.072085,20.158422,,,0,,,
stop_370_51502,,"Wyciaze Sklep (nz)","",50.072308,20.158378,,,0,,,
stop_371_51701,,"Podstawie (nz)","",50.068699,20.166932,,,0,,,
stop_371_51702,,"Podstawie (nz)","",50.068769,20.167002,,,0,,,
stop_372_51801,,"Drozyska (nz)","",50.065187,20.168195,,,0,,,
stop_372_51802,,"Drozyska (nz)","",50.065024,20.168313,,,0,,,
stop_374_52001,,"Ruszcza","",50.086899,20.146481,,,0,,,
stop_374_52091,,"Ruszcza","",50.086818,20.14638,,,0,,,
stop_375_52101,,"Wyciaze Wiadukt (nz)","",50.079081,20.172274,,,0,,,
stop_375_52102,,"Wyciaze Wiadukt (nz)","",50.079043,20.173133,,,0,,,
stop_376_52201,,"Clo","",50.080508,20.185279,,,0,,,
stop_376_52202,,"Clo","",50.080342,20.184911,,,0,,,
stop_377_52501,,"Chalupki","",50.048993,20.12205,,,0,,,
stop_378_52701,,"Kakolowa (nz)","",50.051428,20.127488,,,0,,,
stop_378_52702,,"Kakolowa (nz)","",50.051447,20.127221,,,0,,,
stop_379_53001,,"Branice (nz)","",50.059156,20.136859,,,0,,,
stop_379_53002,,"Branice (nz)","",50.059205,20.13686,,,0,,,
stop_380_53101,,"Branice Szkola","",50.060193,20.143178,,,0,,,
stop_380_53102,,"Branice Szkola","",50.060277,20.143233,,,0,,,
stop_381_53201,,"Przylasek Rusiecki","",50.046098,20.163859,,,0,,,
stop_382_53401,,"zwirownia","",50.053951,20.161756,,,0,,,
stop_382_53402,,"zwirownia","",50.054186,20.161623,,,0,,,
stop_383_53601,,"Wolica Most","",50.052082,20.2062,,,0,,,
stop_383_53602,,"Wolica Most","",50.051719,20.207471,,,0,,,
stop_384_53701,,"Wolica Las","",50.056446,20.202276,,,0,,,
stop_384_53702,,"Wolica Las","",50.055685,20.202646,,,0,,,
stop_385_53801,,"Wolica Kosciol (nz)","",50.05526,20.201973,,,0,,,
stop_385_53802,,"Wolica Kosciol (nz)","",50.055028,20.20236,,,0,,,
stop_386_53901,,"Wolica (nz)","",50.063308,20.194002,,,0,,,
stop_386_53902,,"Wolica (nz)","",50.062533,20.194763,,,0,,,
stop_388_54101,,"Bartnicza (nz)","",50.056622,20.187038,,,0,,,
stop_388_54102,,"Bartnicza (nz)","",50.056672,20.186807,,,0,,,
stop_389_54201,,"Siejowka (nz)","",50.05712,20.181102,,,0,,,
stop_389_54202,,"Siejowka (nz)","",50.057148,20.181205,,,0,,,
stop_390_54301,,"Przylasek Wyciaski (nz)","",50.059022,20.176676,,,0,,,
stop_390_54302,,"Przylasek Wyciaski (nz)","",50.059042,20.17676,,,0,,,
stop_391_54401,,"Kujawy","",50.048156,20.100114,,,0,,,
stop_392_54601,,"Karowa (nz)","",50.060495,20.107999,,,0,,,
stop_392_54602,,"Karowa (nz)","",50.060456,20.108038,,,0,,,
stop_394_55001,,"Na Zaleczu","",50.05971,20.025065,,,0,,,
stop_394_55003,,"Na Zaleczu","",50.059662,20.024049,,,0,,,
stop_394_55004,,"Na Zaleczu","",50.060657,20.024059,,,0,,,
stop_394_55090,,"Na Zaleczu","",50.059663,20.02482,,,0,,,
stop_395_55201,,"Habina (nz)","",50.057946,20.030205,,,0,,,
stop_395_55202,,"Habina (nz)","",50.057497,20.030902,,,0,,,
stop_396_55301,,"Odmetowa","",50.054712,20.034804,,,0,,,
stop_396_55302,,"Odmetowa","",50.05403,20.035201,,,0,,,
stop_397_55401,,"Lesisko","",50.054023,20.045323,,,0,,,
stop_397_55491,,"Lesisko","",50.054073,20.045319,,,0,,,
stop_398_55801,,"Stoczniowcow","",50.049524,19.981224,,,0,,,
stop_398_55802,,"Stoczniowcow","",50.048446,19.982209,,,0,,,
stop_398_55803,,"Stoczniowcow","",50.049748,19.983476,,,0,,,
stop_398_55804,,"Stoczniowcow","",50.048737,19.981024,,,0,,,
stop_399_55901,,"Saska","",50.044382,19.983582,,,0,,,
stop_399_55902,,"Saska","",50.045584,19.98369,,,0,,,
stop_399_55903,,"Saska","",50.044984,19.984302,,,0,,,
stop_399_55904,,"Saska","",50.045302,19.982804,,,0,,,
stop_400_56003,,"Gromadzka","",50.04052,19.976986,,,0,,,
stop_400_56004,,"Gromadzka","",50.040796,19.977014,,,0,,,
stop_401_56104,,"Lipska","",50.040845,19.982526,,,0,,,
stop_401_56105,,"Lipska","",50.041316,19.983444,,,0,,,
stop_401_56106,,"Lipska","",50.040543,19.984048,,,0,,,
stop_402_56201,,"Szczecinska","",50.042791,19.989782,,,0,,,
stop_402_56202,,"Szczecinska","",50.042343,19.991017,,,0,,,
stop_403_56301,,"lanowa","",50.039397,19.991828,,,0,,,
stop_403_56302,,"lanowa","",50.039004,19.992814,,,0,,,
stop_404_56401,,"Plaszow Szkola","",50.037215,19.991802,,,0,,,
stop_405_56501,,"Motyla","",50.037465,19.997092,,,0,,,
stop_406_56703,,"Kuklinskiego","",50.044512,19.973241,,,0,,,
stop_406_56704,,"Kuklinskiego","",50.045589,19.973264,,,0,,,
stop_406_56705,,"Kuklinskiego","",50.044807,19.974404,,,0,,,
stop_406_56706,,"Kuklinskiego","",50.045361,19.974685,,,0,,,
stop_406_56707,,"Kuklinskiego","",50.044976,19.972108,,,0,,,
stop_408_57001,,"Plac Bohaterow Getta","",50.046685,19.954812,,,0,,,
stop_408_57002,,"Plac Bohaterow Getta","",50.046384,19.955349,,,0,,,
stop_408_57071,,"Plac Bohaterow Getta","",50.046685,19.954812,,,0,,,
stop_409_57101,,"Korona","",50.043476,19.946591,,,0,,,
stop_409_57102,,"Korona","",50.04409,19.946699,,,0,,,
stop_410_57201,,"Smolki","",50.041423,19.943301,,,0,,,
stop_410_57202,,"Smolki","",50.041602,19.943303,,,0,,,
stop_411_57501,,"Szwedzka","",50.04674,19.925336,,,0,,,
stop_411_57502,,"Szwedzka","",50.046733,19.925495,,,0,,,
stop_412_57603,,"Kapelanka","",50.045439,19.92049,,,0,,,
stop_412_57604,,"Kapelanka","",50.045656,19.922452,,,0,,,
stop_412_57605,,"Kapelanka","",50.043213,19.922683,,,0,,,
stop_413_57703,,"Slomiana","",50.040773,19.924439,,,0,,,
stop_413_57704,,"Slomiana","",50.040743,19.924171,,,0,,,
stop_414_57801,,"Baluckiego (nz)","",50.049656,19.925948,,,0,,,
stop_415_57901,,"Rynek Debnicki","",50.05174,19.926654,,,0,,,
stop_415_57902,,"Rynek Debnicki","",50.051961,19.926954,,,0,,,
stop_416_58001,,"Praska (nz)","",50.049777,19.920527,,,0,,,
stop_416_58002,,"Praska (nz)","",50.049709,19.92049,,,0,,,
stop_417_58101,,"Zielinskiego (nz)","",50.047144,19.912651,,,0,,,
stop_417_58102,,"Zielinskiego (nz)","",50.047538,19.913985,,,0,,,
stop_417_58103,,"Zielinskiego (nz)","",50.047194,19.911194,,,0,,,
stop_417_58104,,"Zielinskiego (nz)","",50.046406,19.911957,,,0,,,
stop_418_58201,,"Os. Robotnicze","",50.045716,19.908833,,,0,,,
stop_418_58202,,"Os. Robotnicze","",50.045945,19.909612,,,0,,,
stop_419_58403,,"Kobierzynska","",50.034076,19.925844,,,0,,,
stop_419_58404,,"Kobierzynska","",50.034209,19.925512,,,0,,,
stop_420_58903,,"Ruczaj","",50.027108,19.9066,,,0,,,
stop_420_58904,,"Ruczaj","",50.026755,19.905075,,,0,,,
stop_421_59001,,"Zachodnia","",50.023116,19.910257,,,0,,,
stop_421_59002,,"Zachodnia","",50.024173,19.911178,,,0,,,
stop_422_59101,,"Tyniec Kamieniolom","",50.008333,19.814468,,,0,,,
stop_423_59201,,"Bogucianka","",50.00994,19.812222,,,0,,,
stop_423_59202,,"Bogucianka","",50.010283,19.811998,,,0,,,
stop_424_59301,,"Tyniec","",50.015544,19.808937,,,0,,,
stop_424_59302,,"Tyniec","",50.015284,19.808998,,,0,,,
stop_425_59701,,"Kostrze Kapliczka (nz)","",50.026916,19.844628,,,0,,,
stop_425_59702,,"Kostrze Kapliczka (nz)","",50.026911,19.844756,,,0,,,
stop_426_59901,,"Kostrze OSP","",50.028715,19.852134,,,0,,,
stop_426_59902,,"Kostrze OSP","",50.028687,19.852143,,,0,,,
stop_427_60001,,"Dabrowa","",50.023319,19.847365,,,0,,,
stop_427_60002,,"Dabrowa","",50.024512,19.848985,,,0,,,
stop_428_60101,,"Kostrze","",50.018907,19.843006,,,0,,,
stop_428_60102,,"Kostrze","",50.018957,19.842573,,,0,,,
stop_429_60301,,"Podgorki Tynieckie","",50.006382,19.844464,,,0,,,
stop_430_60401,,"Skotniki Szkola","",50.016357,19.875511,,,0,,,
stop_430_60402,,"Skotniki Szkola","",50.016965,19.87603,,,0,,,
stop_430_60491,,"Skotniki Szkola","",50.016371,19.875516,,,0,,,
stop_431_60501,,"Kostrze Szkola","",50.029172,19.855619,,,0,,,
stop_431_60502,,"Kostrze Szkola","",50.029107,19.854849,,,0,,,
stop_432_61003,,"Rondo Matecznego","",50.035886,19.941394,,,0,,,
stop_432_61004,,"Rondo Matecznego","",50.036798,19.941089,,,0,,,
stop_432_61005,,"Rondo Matecznego","",50.037269,19.939994,,,0,,,
stop_432_61006,,"Rondo Matecznego","",50.04857,19.93315,,,0,,,
stop_433_61103,,"Rzemieslnicza","",50.032724,19.938345,,,0,,,
stop_433_61104,,"Rzemieslnicza","",50.033157,19.938821,,,0,,,
stop_434_61203,,"Borsucza","",50.030451,19.928164,,,0,,,
stop_434_61204,,"Borsucza","",50.03035,19.929234,,,0,,,
stop_435_61601,,"Rynek Falecki","",50.017844,19.924282,,,0,,,
stop_436_61701,,"Fredry","",50.020821,19.942781,,,0,,,
stop_436_61702,,"Fredry","",50.021504,19.942677,,,0,,,
stop_437_61801,,"Sucha","",50.024556,19.942083,,,0,,,
stop_437_61802,,"Sucha","",50.024196,19.942141,,,0,,,
stop_438_61901,,"Kamienskiego Wiadukt (nz)","",50.032049,19.948271,,,0,,,
stop_438_61902,,"Kamienskiego Wiadukt (nz)","",50.031052,19.949271,,,0,,,
stop_439_62001,,"Kamienskiego","",50.029033,19.957448,,,0,,,
stop_439_62002,,"Kamienskiego","",50.028866,19.957078,,,0,,,
stop_440_62103,,"Cmentarz Podgorski","",50.039588,19.963532,,,0,,,
stop_440_62104,,"Cmentarz Podgorski","",50.038571,19.964881,,,0,,,
stop_441_62304,,"Dworcowa","",50.033568,19.970068,,,0,,,
stop_441_62305,,"Dworcowa","",50.032542,19.970793,,,0,,,
stop_442_62403,,"Kabel","",50.027353,19.976173,,,0,,,
stop_442_62404,,"Kabel","",50.027496,19.976203,,,0,,,
stop_443_62501,,"Malborska","",50.026526,19.973238,,,0,,,
stop_443_62502,,"Malborska","",50.026408,19.973025,,,0,,,
stop_443_62503,,"Malborska","",50.026049,19.974854,,,0,,,
stop_444_62601,,"Makowa","",50.027349,19.965945,,,0,,,
stop_444_62602,,"Makowa","",50.02708,19.966687,,,0,,,
stop_445_62801,,"Slawka (nz)","",50.02567,19.960104,,,0,,,
stop_445_62802,,"Slawka (nz)","",50.026519,19.959735,,,0,,,
stop_446_62901,,"Wola Duchacka","",50.021082,19.962074,,,0,,,
stop_446_62902,,"Wola Duchacka","",50.021365,19.960247,,,0,,,
stop_446_62903,,"Wola Duchacka","",50.019751,19.960594,,,0,,,
stop_446_62904,,"Wola Duchacka","",50.020265,19.955571,,,0,,,
stop_447_63005,,"Biezanowska","",50.023857,19.978946,,,0,,,
stop_447_63006,,"Biezanowska","",50.023512,19.979049,,,0,,,
stop_447_63007,,"Biezanowska","",50.024308,19.982648,,,0,,,
stop_447_63008,,"Biezanowska","",50.024526,19.983069,,,0,,,
stop_447_63009,,"Biezanowska","",50.023332,19.980571,,,0,,,
stop_447_63010,,"Biezanowska","",50.022826,19.982011,,,0,,,
stop_448_63203,,"Dauna","",50.01851,19.977348,,,0,,,
stop_448_63204,,"Dauna","",50.019276,19.977741,,,0,,,
stop_449_63301,,"Prosta","",50.025326,19.991185,,,0,,,
stop_449_63302,,"Prosta","",50.025112,19.992523,,,0,,,
stop_450_63403,,"Wlotowa","",50.018929,19.988063,,,0,,,
stop_450_63404,,"Wlotowa","",50.019101,19.988396,,,0,,,
stop_453_63901,,"Brzegi I","",50.033195,20.094452,,,0,,,
stop_453_63902,,"Brzegi I","",50.033411,20.093644,,,0,,,
stop_454_64001,,"lutnia","",50.04058,20.073613,,,0,,,
stop_454_64002,,"lutnia","",50.040516,20.073322,,,0,,,
stop_455_64101,,"Przewoz","",50.041881,20.063235,,,0,,,
stop_455_64102,,"Przewoz","",50.041803,20.061371,,,0,,,
stop_455_64171,,"Przewoz","",50.041338,20.062329,,,0,,,
stop_458_64501,,"Nad Drwina","",50.032388,20.056842,,,0,,,
stop_458_64591,,"Nad Drwina","",50.032391,20.056834,,,0,,,
stop_459_64601,,"Domagaly (nz)","",50.032972,20.051071,,,0,,,
stop_459_64602,,"Domagaly (nz)","",50.032898,20.051198,,,0,,,
stop_459_64603,,"Domagaly (nz)","",50.03252,20.0518,,,0,,,
stop_464_65101,,"Szparagowa","",50.043202,20.04524,,,0,,,
stop_464_65102,,"Szparagowa","",50.04468,20.04522,,,0,,,
stop_464_65103,,"Szparagowa","",50.043285,20.045678,,,0,,,
stop_464_65104,,"Szparagowa","",50.0445,20.04609,,,0,,,
stop_465_65201,,"Rybitwy Rozjazd (nz)","",50.046084,20.043829,,,0,,,
stop_465_65202,,"Rybitwy Rozjazd (nz)","",50.046053,20.043836,,,0,,,
stop_466_65301,,"Rybitwy Dom Kultury","",50.042664,20.035126,,,0,,,
stop_466_65302,,"Rybitwy Dom Kultury","",50.042855,20.035668,,,0,,,
stop_467_65401,,"Rybitwy Sklep (nz)","",50.041521,20.028315,,,0,,,
stop_467_65402,,"Rybitwy Sklep (nz)","",50.041605,20.028696,,,0,,,
stop_468_65501,,"Jezowa","",50.038132,20.026229,,,0,,,
stop_468_65502,,"Jezowa","",50.037998,20.028184,,,0,,,
stop_468_65503,,"Jezowa","",50.038434,20.026834,,,0,,,
stop_469_66001,,"Plk. Dabka","",50.036468,20.006327,,,0,,,
stop_469_66002,,"Plk. Dabka","",50.036185,20.007044,,,0,,,
stop_471_66303,,"Biezanow Szkola","",50.018756,20.02477,,,0,,,
stop_473_66501,,"Biezanow Pomnik","",50.018395,20.035133,,,0,,,
stop_473_66502,,"Biezanow Pomnik","",50.018231,20.033155,,,0,,,
stop_474_66601,,"Sucharskiego (nz)","",50.018379,20.042746,,,0,,,
stop_474_66602,,"Sucharskiego (nz)","",50.017849,20.043994,,,0,,,
stop_475_66701,,"Biezanow","",50.017537,20.068257,,,0,,,
stop_476_66801,,"Jasienskiego (nz)","",50.017026,20.057165,,,0,,,
stop_476_66802,,"Jasienskiego (nz)","",50.017208,20.057238,,,0,,,
stop_477_67001,,"Biezanow Potrzask","",50.008084,20.052915,,,0,,,
stop_478_67101,,"Pruszynskiego","",50.013697,20.048869,,,0,,,
stop_479_67201,,"Biezanow Kaim","",50.008099,20.045024,,,0,,,
stop_480_67501,,"Ks.laczka (nz)","",50.01012,20.030323,,,0,,,
stop_480_67502,,"Ks.laczka (nz)","",50.010174,20.027338,,,0,,,
stop_482_67903,,"Cwiklinskiej","",50.015578,20.02039,,,0,,,
stop_482_67904,,"Cwiklinskiej","",50.016063,20.018885,,,0,,,
stop_483_68103,,"Teligi","",50.016571,20.006351,,,0,,,
stop_483_68104,,"Teligi","",50.016594,20.00663,,,0,,,
stop_484_68203,,"Prokocim Szpital","",50.014271,20.000129,,,0,,,
stop_484_68204,,"Prokocim Szpital","",50.015038,20.001275,,,0,,,
stop_484_68205,,"Prokocim Szpital","",50.014481,19.998368,,,0,,,
stop_484_68206,,"Prokocim Szpital","",50.014346,19.997844,,,0,,,
stop_485_68301,,"Wydzial Farmaceutyczny UJ","",50.011871,19.993147,,,0,,,
stop_486_68402,,"Prokocim UJ","",50.010368,19.992519,,,0,,,
stop_486_68403,,"Prokocim UJ","",50.009874,19.992869,,,0,,,
stop_489_68701,,"Piaski Wielkie","",50.006163,19.982143,,,0,,,
stop_489_68702,,"Piaski Wielkie","",50.00612,19.981894,,,0,,,
stop_489_68703,,"Piaski Wielkie","",50.005793,19.982977,,,0,,,
stop_491_69401,,"Landaua","",49.98809,19.96263,,,0,,,
stop_491_69402,,"Landaua","",49.98806,19.96368,,,0,,,
stop_491_69404,,"Landaua","",49.98843,19.96227,,,0,,,
stop_492_69501,,"Rajsko","",49.98742,19.96845,,,0,,,
stop_492_69502,,"Rajsko","",49.9865,19.96968,,,0,,,
stop_493_69901,,"Soboniowice","",49.979646,19.990058,,,0,,,
stop_493_69902,,"Soboniowice","",49.979146,19.988828,,,0,,,
stop_494_70201,,"Krzemieniecka (nz)","",49.983399,19.995144,,,0,,,
stop_494_70202,,"Krzemieniecka (nz)","",49.983544,19.995745,,,0,,,
stop_495_70301,,"Barycz (nz)","",49.985434,20.002482,,,0,,,
stop_495_70302,,"Barycz (nz)","",49.984958,20.002482,,,0,,,
stop_496_70601,,"Kosocice","",49.99436,19.989211,,,0,,,
stop_496_70602,,"Kosocice","",49.994164,19.989197,,,0,,,
stop_497_70901,,"Kurdwanow Szkola","",50.005151,19.965469,,,0,,,
stop_497_70902,,"Kurdwanow Szkola","",50.00566,19.966448,,,0,,,
stop_498_71002,,"Os. Kurdwanow","",50.00453,19.959678,,,0,,,
stop_499_71101,,"Stojalowskiego","",50.005286,19.954604,,,0,,,
stop_499_71102,,"Stojalowskiego","",50.005045,19.955975,,,0,,,
stop_500_71401,,"Tuchowska","",50.013328,19.966636,,,0,,,
stop_500_71402,,"Tuchowska","",50.013187,19.967097,,,0,,,
stop_501_71503,,"Nowosadecka","",50.014182,19.965014,,,0,,,
stop_501_71504,,"Nowosadecka","",50.013783,19.964719,,,0,,,
stop_501_71505,,"Nowosadecka","",50.014047,19.96663,,,0,,,
stop_502_71603,,"Piaski Nowe","",50.015299,19.970041,,,0,,,
stop_502_71604,,"Piaski Nowe","",50.015361,19.971854,,,0,,,
stop_503_71702,,"Karpinskiego","",50.016323,19.963448,,,0,,,
stop_504_71803,,"Witosa","",50.012454,19.957178,,,0,,,
stop_504_71804,,"Witosa","",50.012843,19.955548,,,0,,,
stop_507_72101,,"Zbydniowice","",49.97266,19.9475,,,0,,,
stop_507_72102,,"Zbydniowice","",49.97313,19.94723,,,0,,,
stop_507_72103,,"Zbydniowice","",49.97235,19.94714,,,0,,,
stop_508_72201,,"Lusina Dolna (nz)","",49.973589,19.933402,,,0,,,
stop_508_72202,,"Lusina Dolna (nz)","",49.973651,19.933544,,,0,,,
stop_512_72801,,"Chalubinskiego (nz)","",49.983129,19.936939,,,0,,,
stop_512_72802,,"Chalubinskiego (nz)","",49.983097,19.936976,,,0,,,
stop_514_73001,,"Pytlasinskiego","",49.986693,19.940351,,,0,,,
stop_514_73002,,"Pytlasinskiego","",49.985994,19.940122,,,0,,,
stop_516_73201,,"Swoszowice Poczta","",49.99033,19.941364,,,0,,,
stop_516_73202,,"Swoszowice Poczta","",49.990848,19.942338,,,0,,,
stop_520_73701,,"Wilga (nz)","",49.995111,19.930352,,,0,,,
stop_520_73702,,"Wilga (nz)","",49.994912,19.930647,,,0,,,
stop_522_73901,,"Swoszowice Autostrada (nz)","",50.001063,19.941366,,,0,,,
stop_522_73902,,"Swoszowice Autostrada (nz)","",50.000617,19.942314,,,0,,,
stop_523_74002,,"Myslenicka (nz)","",50.004708,19.942885,,,0,,,
stop_523_74003,,"Myslenicka (nz)","",50.005756,19.943644,,,0,,,
stop_523_74004,,"Myslenicka (nz)","",50.005648,19.94537,,,0,,,
stop_524_74101,,"Halszki","",50.00563,19.949565,,,0,,,
stop_524_74102,,"Halszki","",50.005537,19.949076,,,0,,,
stop_524_74103,,"Halszki","",50.00582,19.947673,,,0,,,
stop_525_74201,,"Jugowicka","",50.007475,19.930404,,,0,,,
stop_525_74202,,"Jugowicka","",50.007502,19.930701,,,0,,,
stop_526_74301,,"Bujaka","",50.010424,19.948828,,,0,,,
stop_526_74302,,"Bujaka","",50.009581,19.948433,,,0,,,
stop_526_74371,,"Bujaka","",50.009971,19.948477,,,0,,,
stop_528_74503,,"Przykopy (nz)","",50.014341,19.945262,,,0,,,
stop_528_74504,,"Przykopy (nz)","",50.015974,19.945571,,,0,,,
stop_529_74603,,"Solvay","",50.01612,19.928642,,,0,,,
stop_530_74704,,"Borek Falecki","",50.011489,19.926528,,,0,,,
stop_530_74705,,"Borek Falecki","",50.011299,19.926622,,,0,,,
stop_531_74801,,"zywiecka","",50.015713,19.919678,,,0,,,
stop_532_74901,,"Gora Borkowska (nz)","",50.007396,19.924508,,,0,,,
stop_532_74902,,"Gora Borkowska (nz)","",50.007129,19.925702,,,0,,,
stop_532_74903,,"Gora Borkowska (nz)","",50.007443,19.925266,,,0,,,
stop_532_74904,,"Gora Borkowska (nz)","",50.006614,19.92457,,,0,,,
stop_532_74993,,"Gora Borkowska (nz)","",50.007441,19.925264,,,0,,,
stop_533_75001,,"Las Borkowski","",50.008003,19.906589,,,0,,,
stop_533_75002,,"Las Borkowski","",50.008509,19.907158,,,0,,,
stop_534_75101,,"Zawila (nz)","",50.006487,19.900888,,,0,,,
stop_534_75102,,"Zawila (nz)","",50.006426,19.901244,,,0,,,
stop_535_75201,,"Skosna","",50.011705,19.89879,,,0,,,
stop_535_75202,,"Skosna","",50.011235,19.898374,,,0,,,
stop_536_75301,,"Borkowska","",50.004536,19.905805,,,0,,,
stop_536_75302,,"Borkowska","",50.004895,19.905822,,,0,,,
stop_537_75401,,"Forteczna","",50.000848,19.906782,,,0,,,
stop_537_75402,,"Forteczna","",50.001041,19.906041,,,0,,,
stop_538_75501,,"Zawiszy","",49.999687,19.911941,,,0,,,
stop_539_75601,,"Os. Kliny","",50.000538,19.912668,,,0,,,
stop_540_75801,,"Judyma","",50.002414,19.922574,,,0,,,
stop_540_75802,,"Judyma","",50.001435,19.921839,,,0,,,
stop_541_75901,,"Kapielowa (nz)","",49.999001,19.921502,,,0,,,
stop_541_75902,,"Kapielowa (nz)","",49.998813,19.921744,,,0,,,
stop_541_75903,,"Kapielowa (nz)","",49.997455,19.919936,,,0,,,
stop_541_75904,,"Kapielowa (nz)","",49.997574,19.91987,,,0,,,
stop_542_76001,,"Opatkowice Wiadukt (nz)","",49.994896,19.918448,,,0,,,
stop_542_76002,,"Opatkowice Wiadukt (nz)","",49.994458,19.918344,,,0,,,
stop_543_76101,,"Opatkowice","",49.987838,19.915055,,,0,,,
stop_543_76102,,"Opatkowice","",49.986473,19.913965,,,0,,,
stop_544_76501,,"Brcknera","",50.011982,19.875804,,,0,,,
stop_544_76502,,"Brcknera","",50.012561,19.876017,,,0,,,
stop_545_76601,,"Skotniki","",50.006638,19.873869,,,0,,,
stop_545_76602,,"Skotniki","",50.007339,19.873606,,,0,,,
stop_545_76603,,"Skotniki","",50.006331,19.875388,,,0,,,
stop_545_76604,,"Skotniki","",50.006726,19.872138,,,0,,,
stop_546_76701,,"Babinskiego","",50.007043,19.879837,,,0,,,
stop_546_76702,,"Babinskiego","",50.007099,19.881275,,,0,,,
stop_546_76703,,"Babinskiego","",50.00752,19.881071,,,0,,,
stop_547_76801,,"Kobierzyn","",50.007332,19.891838,,,0,,,
stop_547_76802,,"Kobierzyn","",50.007162,19.891826,,,0,,,
stop_548_77201,,"Sidzina","",49.988461,19.872001,,,0,,,
stop_549_77901,,"Skawina","",49.968524,19.829829,,,0,,,
stop_549_77991,,"Skawina","",49.968521,19.829795,,,0,,,
stop_549_77995,,"Skawina","",49.968524,19.829829,,,0,,,
stop_550_78101,,"Skawina Rynek","",49.975306,19.82792,,,0,,,
stop_550_78102,,"Skawina Rynek","",49.975219,19.827935,,,0,,,
stop_551_78501,,"Skawina Rzepnik","",49.983484,19.837825,,,0,,,
stop_551_78502,,"Skawina Rzepnik","",49.98274,19.837225,,,0,,,
stop_552_78601,,"Radziszow Wlosanka (nz)","",49.930461,19.820661,,,0,,,
stop_552_78602,,"Radziszow Wlosanka (nz)","",49.930478,19.820687,,,0,,,
stop_553_78701,,"Radziszow Zadworze (nz)","",49.935888,19.816064,,,0,,,
stop_553_78702,,"Radziszow Zadworze (nz)","",49.936826,19.815319,,,0,,,
stop_554_78801,,"Radziszow Centrum","",49.938414,19.810193,,,0,,,
stop_554_78802,,"Radziszow Centrum","",49.939101,19.809386,,,0,,,
stop_555_78901,,"Radziszow Kamionna (nz)","",49.946857,19.811231,,,0,,,
stop_555_78902,,"Radziszow Kamionna (nz)","",49.946598,19.811191,,,0,,,
stop_556_79001,,"Gaj Szkola","",49.961489,19.892076,,,0,,,
stop_556_79002,,"Gaj Szkola","",49.960658,19.890029,,,0,,,
stop_557_79101,,"Gaj Zadziele","",49.955954,19.889504,,,0,,,
stop_557_79102,,"Gaj Zadziele","",49.95514,19.889512,,,0,,,
stop_558_79201,,"Mogilany Rynek","",49.942623,19.885363,,,0,,,
stop_558_79291,,"Mogilany Rynek","",49.9427,19.8854,,,0,,,
stop_558_79292,,"Mogilany Rynek","",49.942622,19.885358,,,0,,,
stop_559_79301,,"Mogilany Osrodek Zdrowia (nz)","",49.942448,19.892783,,,0,,,
stop_560_79401,,"Mogilany Wiadukt (nz)","",49.936631,19.896602,,,0,,,
stop_560_79402,,"Mogilany Wiadukt (nz)","",49.936486,19.896693,,,0,,,
stop_561_79701,,"Radziszow Lesniczowka (nz)","",49.916311,19.818571,,,0,,,
stop_561_79702,,"Radziszow Lesniczowka (nz)","",49.91595,19.818489,,,0,,,
stop_562_79801,,"Radziszow Podlesie (nz)","",49.922135,19.821161,,,0,,,
stop_562_79802,,"Radziszow Podlesie (nz)","",49.919429,19.821544,,,0,,,
stop_564_80101,,"Lusina Gorka (nz)","",49.955042,19.929992,,,0,,,
stop_564_80102,,"Lusina Gorka (nz)","",49.9552,19.92978,,,0,,,
stop_568_80801,,"Wlosan Krzyzowka (nz)","",49.918,19.9144,,,0,,,
stop_568_80802,,"Wlosan Krzyzowka (nz)","",49.918,19.9144,,,0,,,
stop_569_80901,,"Wlosan Kopan (nz)","",49.9236,19.92,,,0,,,
stop_569_80902,,"Wlosan Kopan (nz)","",49.9236,19.92,,,0,,,
stop_570_81001,,"Bora-Komorowskiego","",50.085826,19.97847,,,0,,,
stop_570_81002,,"Bora-Komorowskiego","",50.085806,19.980694,,,0,,,
stop_571_81101,,"Zlocien","",50.021865,20.051201,,,0,,,
stop_571_81102,,"Zlocien","",50.022882,20.051125,,,0,,,
stop_571_81103,,"Zlocien","",50.02231,20.05016,,,0,,,
stop_572_81201,,"Podgaje","",49.985972,19.902582,,,0,,,
stop_572_81202,,"Podgaje","",49.986107,19.904274,,,0,,,
stop_575_81601,,"Smolenskiego","",49.981475,19.919888,,,0,,,
stop_575_81602,,"Smolenskiego","",49.981548,19.919728,,,0,,,
stop_580_82201,,"Conrada","",50.088603,19.900097,,,0,,,
stop_580_82202,,"Conrada","",50.088545,19.898271,,,0,,,
stop_581_82701,,"Szpital Rydygiera","",50.092677,20.021619,,,0,,,
stop_582_83001,,"Komuny Paryskiej","",50.006886,19.897071,,,0,,,
stop_582_83002,,"Komuny Paryskiej","",50.007237,19.896354,,,0,,,
stop_583_83201,,"Jasnogorska (nz)","",50.097881,19.89177,,,0,,,
stop_583_83203,,"Jasnogorska (nz)","",50.098215,19.890281,,,0,,,
stop_583_83204,,"Jasnogorska (nz)","",50.099032,19.890129,,,0,,,
stop_584_83301,,"Poroninska (nz)","",49.986995,19.916883,,,0,,,
stop_584_83302,,"Poroninska (nz)","",49.986939,19.918217,,,0,,,
stop_585_83401,,"zyzna (nz)","",49.982798,19.884067,,,0,,,
stop_585_83402,,"zyzna (nz)","",49.982911,19.885036,,,0,,,
stop_586_83601,,"Dwor Czeczow","",50.015281,20.040549,,,0,,,
stop_587_83701,,"Lipowskiego (nz)","",50.01511,20.037238,,,0,,,
stop_588_83801,,"EC leg","",50.051184,20.00405,,,0,,,
stop_589_83901,,"Zatyka (nz)","",50.051266,20.014587,,,0,,,
stop_589_83902,,"Zatyka (nz)","",50.051308,20.014712,,,0,,,
stop_590_84001,,"Isep (nz)","",50.054768,20.021097,,,0,,,
stop_590_84002,,"Isep (nz)","",50.055196,20.021444,,,0,,,
stop_591_84201,,"Rzeszotary Zalesie (nz)","",49.931739,19.980694,,,0,,,
stop_591_84202,,"Rzeszotary Zalesie (nz)","",49.93156,19.981516,,,0,,,
stop_595_85601,,"Rzeszotary Trafo (nz)","",49.939304,19.98321,,,0,,,
stop_595_85602,,"Rzeszotary Trafo (nz)","",49.939247,19.983675,,,0,,,
stop_596_85701,,"Rzeszotary Szkola (nz)","",49.938196,19.973441,,,0,,,
stop_596_85702,,"Rzeszotary Szkola (nz)","",49.938111,19.972528,,,0,,,
stop_597_85801,,"Rzeszotary Polanki (nz)","",49.945198,19.981335,,,0,,,
stop_597_85802,,"Rzeszotary Polanki (nz)","",49.945308,19.980816,,,0,,,
stop_599_86001,,"Ochojno Skrzyzowanie","",49.952708,19.9742,,,0,,,
stop_599_86002,,"Ochojno Skrzyzowanie","",49.953022,19.974186,,,0,,,
stop_600_86101,,"Ochojno Remiza","",49.954188,19.973768,,,0,,,
stop_601_86301,,"Ochojno Kamieniec","",49.95738,19.970967,,,0,,,
stop_601_86302,,"Ochojno Kamieniec","",49.957177,19.9716,,,0,,,
stop_602_86601,,"Wiklinowa (nz)","",50.05589,20.025129,,,0,,,
stop_602_86602,,"Wiklinowa (nz)","",50.055671,20.024487,,,0,,,
stop_603_86703,,"Bienczycka","",50.0763,20.02195,,,0,,,
stop_603_86704,,"Bienczycka","",50.076434,20.021585,,,0,,,
stop_604_86801,,"Piekary Gorne","",50.018202,19.787599,,,0,,,
stop_604_86802,,"Piekary Gorne","",50.018256,19.787614,,,0,,,
stop_605_86901,,"Szafranska","",50.050296,20.009638,,,0,,,
stop_605_86902,,"Szafranska","",50.050364,20.00894,,,0,,,
stop_606_87001,,"Pradnik Bialy Zachod","",50.094008,19.923985,,,0,,,
stop_606_87002,,"Pradnik Bialy Zachod","",50.094135,19.924731,,,0,,,
stop_607_87101,,"Szczyglice Dom Kultury","",50.093699,19.808136,,,0,,,
stop_607_87102,,"Szczyglice Dom Kultury","",50.093983,19.808348,,,0,,,
stop_611_88001,,"Malborska Szkola","",50.022273,19.965404,,,0,,,
stop_611_88002,,"Malborska Szkola","",50.022035,19.964491,,,0,,,
stop_613_88201,,"Bukow Klin (nz)","",49.946606,19.841865,,,0,,,
stop_613_88202,,"Bukow Klin (nz)","",49.946598,19.841801,,,0,,,
stop_614_88301,,"Bukow Szkola (nz)","",49.946451,19.846708,,,0,,,
stop_614_88302,,"Bukow Szkola (nz)","",49.946472,19.846616,,,0,,,
stop_615_88401,,"Kulerzow (nz)","",49.945303,19.853801,,,0,,,
stop_615_88402,,"Kulerzow (nz)","",49.94531,19.853651,,,0,,,
stop_616_88501,,"Kulerzow Wawoz (nz)","",49.945147,19.862154,,,0,,,
stop_616_88502,,"Kulerzow Wawoz (nz)","",49.945105,19.862253,,,0,,,
stop_618_88801,,"Mogilany Cmentarz (nz)","",49.944842,19.884097,,,0,,,
stop_618_88802,,"Mogilany Cmentarz (nz)","",49.944831,19.883619,,,0,,,
stop_620_89301,,"Wolowice Szkola","",49.993711,19.731018,,,0,,,
stop_620_89302,,"Wolowice Szkola","",49.993862,19.731412,,,0,,,
stop_624_89701,,"Cmentarz Batowice","",50.101257,19.981968,,,0,,,
stop_624_89702,,"Cmentarz Batowice","",50.101614,19.983224,,,0,,,
stop_624_89703,,"Cmentarz Batowice","",50.10227,19.984574,,,0,,,
stop_625_89801,,"Wieliczka Cmentarz","",49.987299,20.064369,,,0,,,
stop_625_89802,,"Wieliczka Cmentarz","",49.987358,20.065098,,,0,,,
stop_628_90301,,"slosarczyka","",50.00959,20.04172,,,0,,,
stop_629_90401,,"Przy Kuzni (nz)","",50.003976,19.990254,,,0,,,
stop_629_90402,,"Przy Kuzni (nz)","",50.004045,19.988508,,,0,,,
stop_631_90701,,"Dabrowa Szlachecka Figurka (nz)","",49.995901,19.743546,,,0,,,
stop_631_90702,,"Dabrowa Szlachecka Figurka (nz)","",49.995971,19.743716,,,0,,,
stop_633_90901,,"Wolowice Kapliczka","",49.986543,19.727913,,,0,,,
stop_633_90902,,"Wolowice Kapliczka","",49.986538,19.727942,,,0,,,
stop_634_91001,,"Dabrowa Szlachecka Krzyz (nz)","",49.998464,19.751148,,,0,,,
stop_634_91002,,"Dabrowa Szlachecka Krzyz (nz)","",49.998564,19.751366,,,0,,,
stop_638_91901,,"Tischnera","",50.029375,19.945249,,,0,,,
stop_638_91902,,"Tischnera","",50.029954,19.944592,,,0,,,
stop_639_92001,,"Czerwiakowskiego","",50.008269,20.010032,,,0,,,
stop_640_92206,,"lagiewniki","",50.030281,19.936387,,,0,,,
stop_640_92207,,"lagiewniki","",50.02938,19.936884,,,0,,,
stop_640_92208,,"lagiewniki","",50.028839,19.937519,,,0,,,
stop_640_92209,,"lagiewniki","",50.0295,19.93594,,,0,,,
stop_641_92301,,"Beskidzka","",50.018652,19.951672,,,0,,,
stop_641_92302,,"Beskidzka","",50.018408,19.951573,,,0,,,
stop_642_93003,,"M1 Al. Pokoju","",50.065299,19.996274,,,0,,,
stop_642_93004,,"M1 Al. Pokoju","",50.065601,19.996265,,,0,,,
stop_645_93501,,"Kliny Zacisze","",50.00168,19.900896,,,0,,,
stop_645_93502,,"Kliny Zacisze","",50.001248,19.900332,,,0,,,
stop_646_93601,,"Torfowa","",50.017909,19.905176,,,0,,,
stop_646_93602,,"Torfowa","",50.018984,19.906354,,,0,,,
stop_647_93701,,"Lubostron (nz)","",50.01535,19.902597,,,0,,,
stop_647_93702,,"Lubostron (nz)","",50.014452,19.90168,,,0,,,
stop_649_93901,,"Os. Na Stoku","",50.097877,20.050179,,,0,,,
stop_651_94101,,"Mala Gora (nz)","",50.014173,20.028225,,,0,,,
stop_651_94102,,"Mala Gora (nz)","",50.013595,20.028059,,,0,,,
stop_651_94103,,"Mala Gora (nz)","",50.015374,20.028416,,,0,,,
stop_653_94301,,"Sieborowice (nz)","",50.1593,20.0358,,,0,,,
stop_653_94302,,"Sieborowice (nz)","",50.15931,20.035746,,,0,,,
stop_654_94401,,"Pod Fortem","",49.998678,19.897142,,,0,,,
stop_654_94402,,"Pod Fortem","",49.998662,19.897157,,,0,,,
stop_655_94501,,"Kenara (nz)","",49.982009,19.960087,,,0,,,
stop_655_94502,,"Kenara (nz)","",49.982003,19.959842,,,0,,,
stop_656_94603,,"Klimeckiego","",50.0484,19.968356,,,0,,,
stop_656_94604,,"Klimeckiego","",50.049119,19.967764,,,0,,,
stop_658_95001,,"Wola Luborzycka Las (nz)","",50.164254,20.118819,,,0,,,
stop_658_95002,,"Wola Luborzycka Las (nz)","",50.164571,20.119128,,,0,,,
stop_660_95201,,"lososkowice Szkola (nz)","",50.1906,20.1566,,,0,,,
stop_660_95202,,"lososkowice Szkola (nz)","",50.1906,20.1566,,,0,,,
stop_662_95401,,"Goszyce Remiza (nz)","",50.179378,20.132625,,,0,,,
stop_662_95402,,"Goszyce Remiza (nz)","",50.178273,20.131697,,,0,,,
stop_664_95601,,"Polana zywiecka (nz)","",50.011031,19.909144,,,0,,,
stop_665_95701,,"Urzad Skarbowy Nowa Huta","",50.104607,20.012212,,,0,,,
stop_665_95702,,"Urzad Skarbowy Nowa Huta","",50.105027,20.012157,,,0,,,
stop_666_96101,,"Zabierzow Mlyn","",50.119736,19.801589,,,0,,,
stop_666_96102,,"Zabierzow Mlyn","",50.119496,19.801312,,,0,,,
stop_666_96191,,"Zabierzow Mlyn","",50.119736,19.801589,,,0,,,
stop_667_96301,,"Panienskich Skal","",50.068614,19.863548,,,0,,,
stop_667_96302,,"Panienskich Skal","",50.068507,19.864767,,,0,,,
stop_668_96401,,"Niepolomice Kolejowa (nz)","",50.0442,20.2122,,,0,,,
stop_668_96402,,"Niepolomice Kolejowa (nz)","",50.0442,20.2122,,,0,,,
stop_669_96501,,"Czyzyny Dworzec","",50.074889,20.015276,,,0,,,
stop_669_96591,,"Czyzyny Dworzec","",50.075227,20.014931,,,0,,,
stop_670_96601,,"Tor Kajakowy","",50.032401,19.828979,,,0,,,
stop_670_96691,,"Tor Kajakowy","",50.032428,19.82909,,,0,,,
stop_671_96701,,"Skrzyzowanie do Podchruscia (nz)","",50.113375,19.872605,,,0,,,
stop_671_96702,,"Skrzyzowanie do Podchruscia (nz)","",50.112038,19.873476,,,0,,,
stop_672_96801,,"Modlnica I Kolonia (nz)","",50.128724,19.870373,,,0,,,
stop_672_96802,,"Modlnica I Kolonia (nz)","",50.127811,19.87033,,,0,,,
stop_673_96901,,"Modlnica II (nz)","",50.137008,19.865335,,,0,,,
stop_673_96902,,"Modlnica II (nz)","",50.135711,19.865595,,,0,,,
stop_674_97001,,"Szyce II (nz)","",50.141819,19.863216,,,0,,,
stop_674_97002,,"Szyce II (nz)","",50.144159,19.861591,,,0,,,
stop_675_97101,,"Szyce I (nz)","",50.151215,19.853358,,,0,,,
stop_675_97102,,"Szyce I (nz)","",50.149874,19.854571,,,0,,,
stop_676_97201,,"Wielka Wies (nz)","",50.157393,19.842212,,,0,,,
stop_676_97202,,"Wielka Wies (nz)","",50.156291,19.844304,,,0,,,
stop_677_97301,,"Bialy Kosciol (nz)","",50.169331,19.825903,,,0,,,
stop_677_97302,,"Bialy Kosciol (nz)","",50.16814,19.826804,,,0,,,
stop_678_97401,,"Murownia (nz)","",50.179598,19.812607,,,0,,,
stop_678_97402,,"Murownia (nz)","",50.177757,19.814664,,,0,,,
stop_679_97501,,"Czajowice (nz)","",50.189645,19.79832,,,0,,,
stop_679_97502,,"Czajowice (nz)","",50.189664,19.796795,,,0,,,
stop_680_97601,,"Beblo Stara Wies (nz)","",50.184319,19.792076,,,0,,,
stop_680_97602,,"Beblo Stara Wies (nz)","",50.184586,19.792343,,,0,,,
stop_681_97701,,"Beblo labajowa (nz)","",50.179947,19.785813,,,0,,,
stop_681_97702,,"Beblo labajowa (nz)","",50.179778,19.785618,,,0,,,
stop_682_97801,,"Beblo Lasek (nz)","",50.183216,19.777509,,,0,,,
stop_682_97802,,"Beblo Lasek (nz)","",50.183249,19.777805,,,0,,,
stop_683_97901,,"Bedkowice Mosurowa (nz)","",50.180706,19.767076,,,0,,,
stop_683_97902,,"Bedkowice Mosurowa (nz)","",50.180743,19.767216,,,0,,,
stop_684_98001,,"Bedkowice Kawiory (nz)","",50.178991,19.763096,,,0,,,
stop_684_98002,,"Bedkowice Kawiory (nz)","",50.178196,19.761104,,,0,,,
stop_685_98101,,"Bedkowice Borynia (nz)","",50.175839,19.754401,,,0,,,
stop_685_98102,,"Bedkowice Borynia (nz)","",50.176042,19.754594,,,0,,,
stop_686_98201,,"Bedkowice","",50.167301,19.751907,,,0,,,
stop_686_98202,,"Bedkowice","",50.167963,19.752177,,,0,,,
stop_687_98301,,"Modlniczka I (nz)","",50.115135,19.857187,,,0,,,
stop_687_98302,,"Modlniczka I (nz)","",50.115159,19.857126,,,0,,,
stop_688_98401,,"Modlniczka","",50.11975,19.855125,,,0,,,
stop_688_98402,,"Modlniczka","",50.119929,19.8545,,,0,,,
stop_689_98501,,"Modlnica Skrzyzowanie (nz)","",50.124746,19.867804,,,0,,,
stop_689_98502,,"Modlnica Skrzyzowanie (nz)","",50.124521,19.867629,,,0,,,
stop_690_98601,,"Modlnica","",50.130732,19.863036,,,0,,,
stop_690_98602,,"Modlnica","",50.130685,19.863201,,,0,,,
stop_691_98701,,"Tomaszowice Wedonka (nz)","",50.133609,19.855427,,,0,,,
stop_691_98702,,"Tomaszowice Wedonka (nz)","",50.13349,19.855803,,,0,,,
stop_692_98801,,"Tomaszowice I (nz)","",50.135323,19.84817,,,0,,,
stop_692_98802,,"Tomaszowice I (nz)","",50.135217,19.848656,,,0,,,
stop_693_98901,,"Tomaszowice","",50.134413,19.841736,,,0,,,
stop_693_98902,,"Tomaszowice","",50.13438,19.842074,,,0,,,
stop_694_99001,,"Tonie Gliniki (nz)","",50.116945,19.894172,,,0,,,
stop_694_99002,,"Tonie Gliniki (nz)","",50.116966,19.894248,,,0,,,
stop_695_99401,,"Trojadyn Skrzyzowanie (nz)","",50.138109,19.868918,,,0,,,
stop_695_99402,,"Trojadyn Skrzyzowanie (nz)","",50.138312,19.870418,,,0,,,
stop_696_99501,,"Meissnera","",50.076128,19.979405,,,0,,,
stop_696_99502,,"Meissnera","",50.074754,19.979624,,,0,,,
stop_697_99902,,"Turowicza (nz)","",50.018952,19.945491,,,0,,,
stop_697_99903,,"Turowicza (nz)","",50.01932,19.944419,,,0,,,
stop_698_100001,,"Lusina Petla","",49.961259,19.917967,,,0,,,
stop_698_100091,,"Lusina Petla","",49.96125,19.918012,,,0,,,
stop_699_100101,,"Lusina Szkola","",49.967463,19.929688,,,0,,,
stop_699_100102,,"Lusina Szkola","",49.967688,19.9301,,,0,,,
stop_700_100201,,"Lusina Spacerowa","",49.970332,19.930625,,,0,,,
stop_700_100202,,"Lusina Spacerowa","",49.970637,19.930557,,,0,,,
stop_701_100301,,"Lusina Dwor","",49.973841,19.927872,,,0,,,
stop_701_100302,,"Lusina Dwor","",49.973632,19.92792,,,0,,,
stop_702_100401,,"Park Wodny","",50.090077,19.982261,,,0,,,
stop_702_100402,,"Park Wodny","",50.090181,19.982269,,,0,,,
stop_703_100701,,"Skawina Szkola","",49.975584,19.82293,,,0,,,
stop_703_100702,,"Skawina Szkola","",49.975748,19.822409,,,0,,,
stop_704_100801,,"Skawina Sad","",49.975898,19.817782,,,0,,,
stop_704_100802,,"Skawina Sad","",49.975589,19.815593,,,0,,,
stop_705_101101,,"Skawina Wojska Polskiego","",49.986827,19.814244,,,0,,,
stop_705_101191,,"Skawina Wojska Polskiego","",49.986827,19.814244,,,0,,,
stop_706_101401,,"Pod Lipa (nz)","",49.975307,19.986584,,,0,,,
stop_706_101402,,"Pod Lipa (nz)","",49.975393,19.986682,,,0,,,
stop_707_101501,,"Muzeum Armii Krajowej (nz)","",50.070389,19.949083,,,0,,,
stop_707_101502,,"Muzeum Armii Krajowej (nz)","",50.071639,19.948812,,,0,,,
stop_708_101601,,"Brzezie Dzialki (nz)","",50.116544,19.829103,,,0,,,
stop_708_101602,,"Brzezie Dzialki (nz)","",50.116766,19.828724,,,0,,,
stop_709_101701,,"Ujazd Petla","",50.135799,19.820317,,,0,,,
stop_709_101791,,"Ujazd Petla","",50.135799,19.820317,,,0,,,
stop_713_102101,,"Brzezie Narodowe (nz)","",50.122156,19.82168,,,0,,,
stop_713_102102,,"Brzezie Narodowe (nz)","",50.121952,19.822303,,,0,,,
stop_713_102103,,"Brzezie Narodowe (nz)","",50.124338,19.821699,,,0,,,
stop_713_102104,,"Brzezie Narodowe (nz)","",50.122883,19.821121,,,0,,,
stop_717_102701,,"Brzezinka Zarzecze (nz)","",50.138249,19.747785,,,0,,,
stop_717_102702,,"Brzezinka Zarzecze (nz)","",50.138288,19.747903,,,0,,,
stop_719_102901,,"Brzezinka Skrzyzowanie","",50.135375,19.739725,,,0,,,
stop_719_102902,,"Brzezinka Skrzyzowanie","",50.135623,19.739718,,,0,,,
stop_722_103201,,"Radwanowice Petla","",50.148249,19.709319,,,0,,,
stop_722_103291,,"Radwanowice Petla","",50.148249,19.709319,,,0,,,
stop_723_103301,,"Radwanowice I (nz)","",50.141033,19.707237,,,0,,,
stop_723_103302,,"Radwanowice I (nz)","",50.141048,19.707372,,,0,,,
stop_728_103901,,"Rudawa Szkola","",50.123208,19.706506,,,0,,,
stop_728_103902,,"Rudawa Szkola","",50.123422,19.707333,,,0,,,
stop_729_104001,,"Mlynka (nz)","",50.118942,19.692586,,,0,,,
stop_729_104002,,"Mlynka (nz)","",50.119634,19.691871,,,0,,,
stop_730_104101,,"Pisary Skrzyzowanie (nz)","",50.123272,19.680834,,,0,,,
stop_730_104102,,"Pisary Skrzyzowanie (nz)","",50.122928,19.681858,,,0,,,
stop_731_104201,,"Nawojowa Gora I (nz)","",50.125024,19.673269,,,0,,,
stop_731_104202,,"Nawojowa Gora I (nz)","",50.125265,19.671556,,,0,,,
stop_732_104301,,"Nawojowa Gora II (nz)","",50.128456,19.65708,,,0,,,
stop_732_104302,,"Nawojowa Gora II (nz)","",50.128228,19.657331,,,0,,,
stop_733_104401,,"Krzeszowice Witaminka (nz)","",50.132144,19.647388,,,0,,,
stop_733_104402,,"Krzeszowice Witaminka (nz)","",50.131721,19.648804,,,0,,,
stop_734_104601,,"Modlniczka Trzcie (nz)","",50.109435,19.839363,,,0,,,
stop_734_104602,,"Modlniczka Trzcie (nz)","",50.109484,19.839464,,,0,,,
stop_736_104801,,"Brzezie Kulka (nz)","",50.124838,19.815235,,,0,,,
stop_736_104802,,"Brzezie Kulka (nz)","",50.125058,19.814449,,,0,,,
stop_739_105103,,"Fort Mogila (nz)","",50.065618,20.070489,,,0,,,
stop_739_105104,,"Fort Mogila (nz)","",50.065349,20.070271,,,0,,,
stop_741_105501,,"Michalowice Ujecie Wody (nz)","",50.1583,19.966956,,,0,,,
stop_741_105502,,"Michalowice Ujecie Wody (nz)","",50.15833,19.966015,,,0,,,
stop_742_105801,,"Michalowice Banasiowka (nz)","",50.14519,19.968588,,,0,,,
stop_742_105802,,"Michalowice Banasiowka (nz)","",50.146482,19.966981,,,0,,,
stop_743_105901,,"Rudawa PKP","",50.11984,19.71352,,,0,,,
stop_743_105902,,"Rudawa PKP","",50.119767,19.713463,,,0,,,
stop_744_106001,,"Dworzec Glowny Wschod","",50.068711,19.949326,,,0,,,
stop_744_106091,,"Dworzec Glowny Wschod","",50.068513,19.949326,,,0,,,
stop_745_106201,,"Janasowka (nz)","",49.999932,19.817516,,,0,,,
stop_745_106202,,"Janasowka (nz)","",49.999551,19.817876,,,0,,,
stop_746_106301,,"Czerwienskiego","",50.083971,19.902456,,,0,,,
stop_747_106401,,"Rudawa Mlyn (nz)","",50.114401,19.701021,,,0,,,
stop_747_106402,,"Rudawa Mlyn (nz)","",50.114223,19.702476,,,0,,,
stop_748_106501,,"Kobylany Remiza (nz)","",50.148611,19.758344,,,0,,,
stop_748_106502,,"Kobylany Remiza (nz)","",50.148535,19.758679,,,0,,,
stop_749_106601,,"Rondo Barei","",50.089108,19.97508,,,0,,,
stop_749_106602,,"Rondo Barei","",50.08825,19.973016,,,0,,,
stop_749_106603,,"Rondo Barei","",50.089055,19.972952,,,0,,,
stop_749_106604,,"Rondo Barei","",50.089656,19.973884,,,0,,,
stop_749_106694,,"Rondo Barei","",50.089651,19.973856,,,0,,,
stop_753_107301,,"Wegrzce Magiczne Wzgorze (nz)","",50.113732,19.975148,,,0,,,
stop_753_107302,,"Wegrzce Magiczne Wzgorze (nz)","",50.114262,19.974091,,,0,,,
stop_754_107401,,"Wegrzce Centrum Medyczne (nz)","",50.116656,19.968254,,,0,,,
stop_754_107402,,"Wegrzce Centrum Medyczne (nz)","",50.116866,19.967835,,,0,,,
stop_755_107901,,"Wegrzce Blonie","",50.125504,19.974847,,,0,,,
stop_755_107902,,"Wegrzce Blonie","",50.1255,19.9747,,,0,,,
stop_755_107992,,"Wegrzce Blonie","",50.125398,19.974704,,,0,,,
stop_756_108001,,"Wegrzce Petla","",50.1286,19.975,,,0,,,
stop_756_108091,,"Wegrzce Petla","",50.12862,19.975027,,,0,,,
stop_757_108301,,"Baczynskiego (nz)","",50.003088,19.86905,,,0,,,
stop_757_108302,,"Baczynskiego (nz)","",50.003512,19.869457,,,0,,,
stop_758_108401,,"Przybyslawice III (nz)","",50.1596,19.8968,,,0,,,
stop_758_108402,,"Przybyslawice III (nz)","",50.1596,19.8968,,,0,,,
stop_759_108601,,"Skawina Koncentraty","",49.972344,19.815604,,,0,,,
stop_759_108602,,"Skawina Koncentraty","",49.971676,19.814999,,,0,,,
stop_759_108603,,"Skawina Koncentraty","",49.973774,19.813325,,,0,,,
stop_759_108604,,"Skawina Koncentraty","",49.973804,19.814017,,,0,,,
stop_760_108701,,"Rzozow Baseny (nz)","",49.962929,19.806302,,,0,,,
stop_760_108702,,"Rzozow Baseny (nz)","",49.961916,19.80562,,,0,,,
stop_761_108801,,"Rzozow I (nz)","",49.958195,19.801625,,,0,,,
stop_761_108802,,"Rzozow I (nz)","",49.957876,19.801069,,,0,,,
stop_762_108901,,"Rzozow Szkola","",49.952891,19.795115,,,0,,,
stop_762_108902,,"Rzozow Szkola","",49.952393,19.793699,,,0,,,
stop_763_109001,,"Goluchowice","",49.946454,19.784934,,,0,,,
stop_763_109002,,"Goluchowice","",49.946147,19.784546,,,0,,,
stop_764_109101,,"Goluchowice Jurczyce","",49.943983,19.779315,,,0,,,
stop_764_109102,,"Goluchowice Jurczyce","",49.943545,19.777103,,,0,,,
stop_764_109103,,"Goluchowice Jurczyce","",49.9432,19.778,,,0,,,
stop_765_109201,,"Goluchowice Sklep (nz)","",49.940965,19.773849,,,0,,,
stop_765_109202,,"Goluchowice Sklep (nz)","",49.940551,19.771219,,,0,,,
stop_766_109301,,"Polanka Hallera Dwor","",49.93754,19.76584,,,0,,,
stop_766_109302,,"Polanka Hallera Dwor","",49.937685,19.765853,,,0,,,
stop_767_109401,,"Grabie Polanka (nz)","",49.933774,19.752709,,,0,,,
stop_767_109402,,"Grabie Polanka (nz)","",49.934053,19.751981,,,0,,,
stop_767_109403,,"Grabie Polanka (nz)","",49.9333,19.7515,,,0,,,
stop_768_109501,,"Krzecin Sklep","",49.94185,19.75013,,,0,,,
stop_768_109502,,"Krzecin Sklep","",49.94185,19.75013,,,0,,,
stop_769_109601,,"Krzecin Kosciol","",49.9436,19.7413,,,0,,,
stop_769_109602,,"Krzecin Kosciol","",49.943711,19.74135,,,0,,,
stop_770_109801,,"Krzecin Kapliczka (nz)","",49.9451,19.7335,,,0,,,
stop_770_109802,,"Krzecin Kapliczka (nz)","",49.945496,19.732912,,,0,,,
stop_771_109901,,"Krzecin Szkola","",49.9438,19.739,,,0,,,
stop_772_110001,,"Skawina Wyspianskiego","",49.9745,19.8565,,,0,,,
stop_772_110002,,"Skawina Wyspianskiego","",49.9745,19.8565,,,0,,,
stop_773_110101,,"Skawina Korabnicka (nz)","",49.9742,19.8476,,,0,,,
stop_773_110102,,"Skawina Korabnicka (nz)","",49.9742,19.8476,,,0,,,
stop_774_110201,,"Skawina Korabnicka Szkola (nz)","",49.9742,19.8369,,,0,,,
stop_775_110301,,"Skawina Pilsudskiego","",49.972352,19.799347,,,0,,,
stop_775_110302,,"Skawina Pilsudskiego","",49.972168,19.797134,,,0,,,
stop_776_110401,,"Skawina Elektrownia (nz)","",49.972912,19.804147,,,0,,,
stop_776_110402,,"Skawina Elektrownia (nz)","",49.972829,19.802174,,,0,,,
stop_777_110501,,"Skawina Zachodnia (nz)","",49.972962,19.806962,,,0,,,
stop_777_110502,,"Skawina Zachodnia (nz)","",49.973,19.806551,,,0,,,
stop_779_110701,,"Skawina Podbory (nz)","",49.968562,19.78491,,,0,,,
stop_779_110702,,"Skawina Podbory (nz)","",49.968884,19.785694,,,0,,,
stop_779_110703,,"Skawina Podbory (nz)","",49.9685,19.7852,,,0,,,
stop_780_110801,,"Brzeznica Pasieka (nz)","",49.964691,19.639387,,,0,,,
stop_780_110802,,"Brzeznica Pasieka (nz)","",49.964882,19.638408,,,0,,,
stop_782_111001,,"Jaskowice (nz)","",49.960086,19.666845,,,0,,,
stop_782_111002,,"Jaskowice (nz)","",49.960046,19.666043,,,0,,,
stop_783_111101,,"Jaskowice PKP (nz)","",49.960662,19.674609,,,0,,,
stop_783_111102,,"Jaskowice PKP (nz)","",49.960769,19.673976,,,0,,,
stop_784_111201,,"Wielkie Drogi Trzebol (nz)","",49.960676,19.687469,,,0,,,
stop_784_111202,,"Wielkie Drogi Trzebol (nz)","",49.960784,19.685265,,,0,,,
stop_785_111301,,"Wielkie Drogi PKP (nz)","",49.957752,19.711535,,,0,,,
stop_785_111302,,"Wielkie Drogi PKP (nz)","",49.958071,19.710169,,,0,,,
stop_786_111501,,"Zelczyna Sklep","",49.960409,19.747989,,,0,,,
stop_786_111502,,"Zelczyna Sklep","",49.960442,19.747686,,,0,,,
stop_787_111601,,"Zelczyna I (nz)","",49.962548,19.758508,,,0,,,
stop_787_111602,,"Zelczyna I (nz)","",49.96239,19.757885,,,0,,,
stop_788_111701,,"Borek Szlachecki II (nz)","",49.964784,19.770738,,,0,,,
stop_788_111702,,"Borek Szlachecki II (nz)","",49.965097,19.772276,,,0,,,
stop_789_111801,,"Borek Szlachecki I (nz)","",49.965402,19.776517,,,0,,,
stop_789_111802,,"Borek Szlachecki I (nz)","",49.966132,19.778897,,,0,,,
stop_790_112001,,"luczyce Las (nz)","",50.159172,20.092276,,,0,,,
stop_790_112002,,"luczyce Las (nz)","",50.159162,20.091827,,,0,,,
stop_792_112201,,"Aleksandry","",50.008316,20.01843,,,0,,,
stop_792_112202,,"Aleksandry","",50.008639,20.018139,,,0,,,
stop_793_112401,,"Wola Radziszowska Mala Ostra Gora (nz)","",49.906942,19.813686,,,0,,,
stop_793_112402,,"Wola Radziszowska Mala Ostra Gora (nz)","",49.906757,19.815011,,,0,,,
stop_794_112501,,"Wola Radziszowska Most (nz)","",49.907703,19.804047,,,0,,,
stop_794_112502,,"Wola Radziszowska Most (nz)","",49.907193,19.804697,,,0,,,
stop_795_112601,,"Wola Radziszowska Lipki (nz)","",49.910049,19.799269,,,0,,,
stop_795_112602,,"Wola Radziszowska Lipki (nz)","",49.910254,19.797827,,,0,,,
stop_796_112701,,"Wola Radziszowska Centrum","",49.907746,19.787157,,,0,,,
stop_796_112702,,"Wola Radziszowska Centrum","",49.908406,19.788306,,,0,,,
stop_798_112901,,"Wola Radziszowska Chorzyny (nz)","",49.904064,19.777181,,,0,,,
stop_798_112902,,"Wola Radziszowska Chorzyny (nz)","",49.903763,19.775515,,,0,,,
stop_799_113001,,"Marcholta","",50.092601,19.987758,,,0,,,
stop_799_113002,,"Marcholta","",50.093244,19.98789,,,0,,,
stop_801_113301,,"Skawina 29 Listopada","",49.972938,19.834507,,,0,,,
stop_801_113302,,"Skawina 29 Listopada","",49.972924,19.834475,,,0,,,
stop_802_113401,,"Skawina Starostwo Powiatowe","",49.972358,19.837057,,,0,,,
stop_802_113402,,"Skawina Starostwo Powiatowe","",49.971449,19.838647,,,0,,,
stop_803_113701,,"Skawina Cmentarz Komunalny","",49.967857,19.852796,,,0,,,
stop_803_113702,,"Skawina Cmentarz Komunalny","",49.96775,19.85286,,,0,,,
stop_804_113801,,"Raciborowice Centrum","",50.117893,20.031222,,,0,,,
stop_804_113802,,"Raciborowice Centrum","",50.11807,20.030959,,,0,,,
stop_805_113901,,"Konczyce","",50.125121,20.021842,,,0,,,
stop_805_113902,,"Konczyce","",50.124652,20.022274,,,0,,,
stop_807_114101,,"Mlodziejowice Park","",50.144048,19.993076,,,0,,,
stop_807_114102,,"Mlodziejowice Park","",50.144204,19.993346,,,0,,,
stop_808_114201,,"Ksiazniczki Centrum","",50.135142,20.009441,,,0,,,
stop_808_114202,,"Ksiazniczki Centrum","",50.135191,20.009205,,,0,,,
stop_809_114301,,"Ksiazniczki Las (nz)","",50.133257,20.004781,,,0,,,
stop_809_114302,,"Ksiazniczki Las (nz)","",50.133369,20.004401,,,0,,,
stop_810_114401,,"Mlodziejowice Mlyn (nz)","",50.139397,19.994615,,,0,,,
stop_810_114402,,"Mlodziejowice Mlyn (nz)","",50.139601,19.994134,,,0,,,
stop_811_114501,,"Michalowice Ogrodowa (nz)","",50.149329,19.98601,,,0,,,
stop_811_114502,,"Michalowice Ogrodowa (nz)","",50.149429,19.986262,,,0,,,
stop_812_115001,,"Grebynice Mogielki (nz)","",50.1737,19.8638,,,0,,,
stop_812_115002,,"Grebynice Mogielki (nz)","",50.1737,19.8638,,,0,,,
stop_813_115201,,"Maszyce Skrzyzowanie (nz)","",50.1807,19.8559,,,0,,,
stop_813_115202,,"Maszyce Skrzyzowanie (nz)","",50.1807,19.8559,,,0,,,
stop_815_115501,,"Powstancow Garaze","",50.095272,19.968271,,,0,,,
stop_815_115502,,"Powstancow Garaze","",50.094944,19.967513,,,0,,,
stop_818_115801,,"Kokotow I (nz)","",50.012173,20.084291,,,0,,,
stop_818_115802,,"Kokotow I (nz)","",50.012257,20.083421,,,0,,,
stop_819_115901,,"Czarnochowice I (nz)","",50.012173,20.074396,,,0,,,
stop_819_115902,,"Czarnochowice I (nz)","",50.012312,20.073524,,,0,,,
stop_820_116101,,"Wegrzce Wielkie III (nz)","",50.0149,20.1107,,,0,,,
stop_820_116102,,"Wegrzce Wielkie III (nz)","",50.0149,20.1107,,,0,,,
stop_821_116201,,"Kokotow II (nz)","",50.013574,20.093126,,,0,,,
stop_821_116202,,"Kokotow II (nz)","",50.013871,20.094897,,,0,,,
stop_822_116301,,"Wegrzce Wielkie II (nz)","",50.0147,20.1059,,,0,,,
stop_822_116302,,"Wegrzce Wielkie II (nz)","",50.0147,20.1059,,,0,,,
stop_823_116401,,"Pszona","",50.078597,19.976955,,,0,,,
stop_823_116402,,"Pszona","",50.078592,19.976608,,,0,,,
stop_824_116501,,"Brodowicza","",50.069086,19.961131,,,0,,,
stop_825_116601,,"Sikorki","",50.062716,20.02273,,,0,,,
stop_825_116602,,"Sikorki","",50.063118,20.022202,,,0,,,
stop_826_116701,,"Wieliczka Kopalnia Soli","",49.984242,20.0571,,,0,,,
stop_826_116702,,"Wieliczka Kopalnia Soli","",49.98456,20.055489,,,0,,,
stop_826_116703,,"Wieliczka Kopalnia Soli","",49.983149,20.056414,,,0,,,
stop_828_116901,,"Krzecin Cmentarz (nz)","",49.94389,19.74514,,,0,,,
stop_828_116902,,"Krzecin Cmentarz (nz)","",49.943979,19.745131,,,0,,,
stop_829_117001,,"Zelczyna Szkola (nz)","",49.959002,19.744573,,,0,,,
stop_829_117002,,"Zelczyna Szkola (nz)","",49.958837,19.743547,,,0,,,
stop_829_117003,,"Zelczyna Szkola (nz)","",49.958873,19.743579,,,0,,,
stop_829_117004,,"Zelczyna Szkola (nz)","",49.958976,19.74458,,,0,,,
stop_831_117201,,"Giebultow","",50.1416,19.8841,,,0,,,
stop_831_117202,,"Giebultow","",50.1416,19.8841,,,0,,,
stop_832_117401,,"Maszyce Remiza (nz)","",50.1791,19.8615,,,0,,,
stop_832_117402,,"Maszyce Remiza (nz)","",50.1791,19.8615,,,0,,,
stop_833_117601,,"Giebultow Plac Zabaw (nz)","",50.144,19.8786,,,0,,,
stop_833_117602,,"Giebultow Plac Zabaw (nz)","",50.144,19.8786,,,0,,,
stop_834_117701,,"Giebultow Morgi","",50.1516,19.8711,,,0,,,
stop_835_117901,,"Rzozow Skotnica (nz)","",49.954134,19.800764,,,0,,,
stop_835_117902,,"Rzozow Skotnica (nz)","",49.952978,19.800904,,,0,,,
stop_836_118001,,"Rzozow PKP (nz)","",49.945476,19.803998,,,0,,,
stop_836_118002,,"Rzozow PKP (nz)","",49.946372,19.80331,,,0,,,
stop_837_118101,,"Rzozow Zagonnie (nz)","",49.949392,19.801128,,,0,,,
stop_837_118102,,"Rzozow Zagonnie (nz)","",49.948998,19.801142,,,0,,,
stop_838_118201,,"Radziszow Kladka (nz)","",49.940559,19.8077,,,0,,,
stop_838_118202,,"Radziszow Kladka (nz)","",49.940357,19.807736,,,0,,,
stop_839_118301,,"Radziszow Zacisze (nz)","",49.935077,19.809475,,,0,,,
stop_839_118302,,"Radziszow Zacisze (nz)","",49.935365,19.809198,,,0,,,
stop_840_118401,,"Radziszow Podwale (nz)","",49.927326,19.808153,,,0,,,
stop_840_118402,,"Radziszow Podwale (nz)","",49.926984,19.807932,,,0,,,
stop_841_118501,,"Radziszow Zawodzie (nz)","",49.921446,19.807495,,,0,,,
stop_841_118502,,"Radziszow Zawodzie (nz)","",49.921114,19.807426,,,0,,,
stop_842_118601,,"Radziszow PKP","",49.918374,19.808282,,,0,,,
stop_845_118901,,"Piekary Palac (nz)","",50.020588,19.793555,,,0,,,
stop_845_118902,,"Piekary Palac (nz)","",50.020454,19.7937,,,0,,,
stop_846_119101,,"Krzyszkowice Kosciol (nz)","",49.987998,20.033649,,,0,,,
stop_846_119102,,"Krzyszkowice Kosciol (nz)","",49.987943,20.032662,,,0,,,
stop_847_119201,,"Krzyszkowice Kasztanowa I (nz)","",49.986304,20.024681,,,0,,,
stop_847_119202,,"Krzyszkowice Kasztanowa I (nz)","",49.986568,20.02421,,,0,,,
stop_848_119301,,"Krzyszkowice Kasztanowa II (nz)","",49.99023,20.024082,,,0,,,
stop_848_119302,,"Krzyszkowice Kasztanowa II (nz)","",49.990516,20.024427,,,0,,,
stop_849_119401,,"Krzyszkowice Modrzewiowa (nz)","",49.994735,20.019936,,,0,,,
stop_849_119402,,"Krzyszkowice Modrzewiowa (nz)","",49.994994,20.019858,,,0,,,
stop_850_119501,,"Krzyszkowice Rozana (nz)","",49.998548,20.024343,,,0,,,
stop_851_119601,,"Lusina lany (nz)","",49.963128,19.922827,,,0,,,
stop_851_119602,,"Lusina lany (nz)","",49.963279,19.923436,,,0,,,
stop_853_119801,,"Przeginia Duchowna Szkola (nz)","",50.023995,19.656001,,,0,,,
stop_853_119802,,"Przeginia Duchowna Szkola (nz)","",50.023934,19.655425,,,0,,,
stop_856_120301,,"Czernichow Stacja Paliw (nz)","",49.991892,19.689398,,,0,,,
stop_856_120302,,"Czernichow Stacja Paliw (nz)","",49.992069,19.688522,,,0,,,
stop_858_120501,,"Wolowice Sklep (nz)","",49.989494,19.721214,,,0,,,
stop_858_120502,,"Wolowice Sklep (nz)","",49.989309,19.719761,,,0,,,
stop_860_120801,,"Rybna Nowy swiat","",50.061576,19.656696,,,0,,,
stop_860_120802,,"Rybna Nowy swiat","",50.061746,19.656801,,,0,,,
stop_862_121201,,"Rybna Osrodek Zdrowia (nz)","",50.041408,19.643318,,,0,,,
stop_862_121202,,"Rybna Osrodek Zdrowia (nz)","",50.041314,19.643753,,,0,,,
stop_863_121301,,"Rybna Dol (nz)","",50.044141,19.637708,,,0,,,
stop_863_121302,,"Rybna Dol (nz)","",50.043925,19.637476,,,0,,,
stop_864_121401,,"Przeginia Duchowna (nz)","",50.034425,19.64624,,,0,,,
stop_864_121402,,"Przeginia Duchowna (nz)","",50.034378,19.64486,,,0,,,
stop_865_121502,,"Czulowek (nz)","",50.038332,19.68376,,,0,,,
stop_865_121503,,"Czulowek (nz)","",50.039527,19.683169,,,0,,,
stop_866_121601,,"Raczna Podlas (nz)","",50.013703,19.744868,,,0,,,
stop_866_121602,,"Raczna Podlas (nz)","",50.013532,19.744814,,,0,,,
stop_867_121701,,"Raczna Dzikowiec (nz)","",50.01743,19.746089,,,0,,,
stop_867_121702,,"Raczna Dzikowiec (nz)","",50.017314,19.746048,,,0,,,
stop_871_122501,,"Rusocice leg (nz)","",49.995358,19.618311,,,0,,,
stop_871_122502,,"Rusocice leg (nz)","",49.995371,19.618284,,,0,,,
stop_872_122601,,"Czernichow Bor (nz)","",49.999998,19.667647,,,0,,,
stop_872_122602,,"Czernichow Bor (nz)","",49.999592,19.668222,,,0,,,
stop_875_122901,,"Rusocice Sklad (nz)","",49.994684,19.606482,,,0,,,
stop_875_122902,,"Rusocice Sklad (nz)","",49.995142,19.606213,,,0,,,
stop_876_123001,,"Rusocice Wies","",50.001184,19.613048,,,0,,,
stop_876_123091,,"Rusocice Wies","",50.00113,19.61299,,,0,,,
stop_877_123101,,"luczyce Zjawienie (nz)","",50.164694,20.075255,,,0,,,
stop_877_123102,,"luczyce Zjawienie (nz)","",50.164735,20.075548,,,0,,,
stop_878_123201,,"Wielkie Drogi Osrodek Zdrowia (nz)","",49.958964,19.701921,,,0,,,
stop_878_123202,,"Wielkie Drogi Osrodek Zdrowia (nz)","",49.95925,19.700943,,,0,,,
stop_879_123301,,"Wielkie Drogi Szkola (nz)","",49.960726,19.695239,,,0,,,
stop_879_123302,,"Wielkie Drogi Szkola (nz)","",49.960995,19.693646,,,0,,,
stop_880_123401,,"Wrzasowice Kowaleca (nz)","",49.954314,19.945605,,,0,,,
stop_880_123402,,"Wrzasowice Kowaleca (nz)","",49.953796,19.946391,,,0,,,
stop_881_123501,,"Nielepice Stadnina (nz)","",50.103063,19.715148,,,0,,,
stop_881_123502,,"Nielepice Stadnina (nz)","",50.102553,19.716317,,,0,,,
stop_882_123601,,"Pisary Dwor (nz)","",50.1291,19.692,,,0,,,
stop_882_123602,,"Pisary Dwor (nz)","",50.1291,19.692,,,0,,,
stop_883_123701,,"Dabrowa Szlachecka Krzemiennik","",49.99933,19.739139,,,0,,,
stop_883_123791,,"Dabrowa Szlachecka Krzemiennik","",49.99933,19.739139,,,0,,,
stop_884_123902,,"Most Kotlarski (nz)","",50.051057,19.962237,,,0,,,
stop_888_124601,,"sciejowice Na Bagnach (nz)","",50.002222,19.778405,,,0,,,
stop_888_124602,,"sciejowice Na Bagnach (nz)","",50.002403,19.778338,,,0,,,
stop_889_124801,,"Krzysztoforzyce Gora (nz)","",50.1138,20.1267,,,0,,,
stop_889_124802,,"Krzysztoforzyce Gora (nz)","",50.1138,20.1267,,,0,,,
stop_890_125301,,"Puszkarska","",50.026063,19.949276,,,0,,,
stop_890_125302,,"Puszkarska","",50.027157,19.948504,,,0,,,
stop_891_125401,,"Zajezdnia Wola Duchacka","",50.023719,19.959355,,,0,,,
stop_891_125402,,"Zajezdnia Wola Duchacka","",50.023856,19.958572,,,0,,,
stop_891_125403,,"Zajezdnia Wola Duchacka","",50.024052,19.960422,,,0,,,
stop_891_125404,,"Zajezdnia Wola Duchacka","",50.024153,19.960387,,,0,,,
stop_892_125501,,"Bonarka","",50.029833,19.953379,,,0,,,
stop_892_125502,,"Bonarka","",50.028736,19.954061,,,0,,,
stop_893_125601,,"Krzysztoforzyce przy Dworze (nz)","",50.1157,20.1316,,,0,,,
stop_893_125602,,"Krzysztoforzyce przy Dworze (nz)","",50.1157,20.1316,,,0,,,
stop_894_125701,,"Kocmyrzow Krzyzowka (nz)","",50.1336,20.126,,,0,,,
stop_894_125702,,"Kocmyrzow Krzyzowka (nz)","",50.1336,20.126,,,0,,,
stop_895_125801,,"Bojki","",50.007741,19.962624,,,0,,,
stop_895_125802,,"Bojki","",50.008012,19.961203,,,0,,,
stop_896_125901,,"Wyslouchow","",50.008154,19.953318,,,0,,,
stop_896_125902,,"Wyslouchow","",50.008048,19.953808,,,0,,,
stop_897_126001,,"Rusocice Jalowce (nz)","",50.002052,19.591471,,,0,,,
stop_897_126002,,"Rusocice Jalowce (nz)","",50.002538,19.590703,,,0,,,
stop_898_126101,,"Rusocice Zaleg (nz)","",49.997804,19.617034,,,0,,,
stop_898_126102,,"Rusocice Zaleg (nz)","",49.998053,19.616334,,,0,,,
stop_899_126203,,"Rzebika","",50.040282,19.992758,,,0,,,
stop_899_126204,,"Rzebika","",50.040681,19.990906,,,0,,,
stop_901_126401,,"Wiktorowice Granica (nz)","",50.141138,20.056923,,,0,,,
stop_901_126402,,"Wiktorowice Granica (nz)","",50.141488,20.056511,,,0,,,
stop_902_126501,,"Zastow Dzialki (nz)","",50.121579,20.056758,,,0,,,
stop_902_126502,,"Zastow Dzialki (nz)","",50.121539,20.05625,,,0,,,
stop_903_126601,,"Wiktorowice Skrzyzowanie (nz)","",50.132511,20.0582,,,0,,,
stop_903_126602,,"Wiktorowice Skrzyzowanie (nz)","",50.132128,20.05842,,,0,,,
stop_904_126701,,"Wiktorowice Centrum (nz)","",50.1375,20.060963,,,0,,,
stop_904_126702,,"Wiktorowice Centrum (nz)","",50.137342,20.061272,,,0,,,
stop_905_127101,,"Bialopradnicka","",50.094606,19.936137,,,0,,,
stop_905_127102,,"Bialopradnicka","",50.095655,19.934756,,,0,,,
stop_906_127401,,"Chobot (nz)","",50.0736,20.3466,,,0,,,
stop_906_127402,,"Chobot (nz)","",50.0736,20.3466,,,0,,,
stop_908_127601,,"Niepolomice Dworzec","",50.035795,20.218312,,,0,,,
stop_908_127602,,"Niepolomice Dworzec","",50.038519,20.216236,,,0,,,
stop_908_127603,,"Niepolomice Dworzec","",50.038501,20.216186,,,0,,,
stop_909_127701,,"Niepolomice Rynek","",50.03331,20.216436,,,0,,,
stop_909_127791,,"Niepolomice Rynek","",50.033301,20.216443,,,0,,,
stop_910_127801,,"Niepolomice Batorego (nz)","",50.0408,20.2234,,,0,,,
stop_910_127802,,"Niepolomice Batorego (nz)","",50.040788,20.223363,,,0,,,
stop_911_127901,,"Niepolomice Batorego II (nz)","",50.0421,20.2296,,,0,,,
stop_911_127902,,"Niepolomice Batorego II (nz)","",50.042058,20.229651,,,0,,,
stop_912_128001,,"Wola Batorska Ruskie (nz)","",50.053109,20.257559,,,0,,,
stop_912_128002,,"Wola Batorska Ruskie (nz)","",50.053191,20.25874,,,0,,,
stop_913_128101,,"Wola Batorska zwirownia (nz)","",50.052746,20.265705,,,0,,,
stop_913_128102,,"Wola Batorska zwirownia (nz)","",50.052503,20.266987,,,0,,,
stop_914_128201,,"Wola Batorska Kosciol (nz)","",50.053048,20.276855,,,0,,,
stop_914_128202,,"Wola Batorska Kosciol (nz)","",50.05272,20.275712,,,0,,,
stop_915_128301,,"Wola Batorska Cmentarz (nz)","",50.052699,20.289946,,,0,,,
stop_915_128302,,"Wola Batorska Cmentarz (nz)","",50.052621,20.290582,,,0,,,
stop_916_128401,,"Wola Batorska Borek (nz)","",50.052896,20.295051,,,0,,,
stop_916_128402,,"Wola Batorska Borek (nz)","",50.054536,20.296762,,,0,,,
stop_917_128501,,"Wola Batorska Mikoniowiec (nz)","",50.057616,20.298304,,,0,,,
stop_917_128502,,"Wola Batorska Mikoniowiec (nz)","",50.058775,20.298828,,,0,,,
stop_918_128601,,"Wola Batorska Zamoglice (nz)","",50.064039,20.301643,,,0,,,
stop_918_128602,,"Wola Batorska Zamoglice (nz)","",50.064293,20.302266,,,0,,,
stop_919_128701,,"Zabierzow Bochenski Centrum (nz)","",50.067625,20.318038,,,0,,,
stop_919_128702,,"Zabierzow Bochenski Centrum (nz)","",50.068094,20.321356,,,0,,,
stop_920_128801,,"Chobot Lesniczowka","",50.0801,20.3526,,,0,,,
stop_921_128901,,"Niepolomice Jazy (nz)","",50.0436,20.24,,,0,,,
stop_921_128902,,"Niepolomice Jazy (nz)","",50.043646,20.240041,,,0,,,
stop_922_129001,,"Niepolomice Jazy II (nz)","",50.0468,20.2462,,,0,,,
stop_922_129002,,"Niepolomice Jazy II (nz)","",50.046751,20.246164,,,0,,,
stop_923_129101,,"Wola Zabierzowska (nz)","",50.0706,20.3358,,,0,,,
stop_923_129102,,"Wola Zabierzowska (nz)","",50.0706,20.3358,,,0,,,
stop_924_129201,,"Grabie Szczurow (nz)","",50.038713,20.111768,,,0,,,
stop_924_129202,,"Grabie Szczurow (nz)","",50.038708,20.1122,,,0,,,
stop_925_129301,,"Grabie Dom Kultury (nz)","",50.039878,20.133588,,,0,,,
stop_925_129302,,"Grabie Dom Kultury (nz)","",50.040025,20.133694,,,0,,,
stop_926_129401,,"Brzegi III (nz)","",50.036948,20.101265,,,0,,,
stop_926_129402,,"Brzegi III (nz)","",50.036834,20.102842,,,0,,,
stop_927_129501,,"Grabie Kosciol","",50.040609,20.139572,,,0,,,
stop_927_129502,,"Grabie Kosciol","",50.040416,20.139856,,,0,,,
stop_927_129503,,"Grabie Kosciol","",50.040609,20.139572,,,0,,,
stop_928_129601,,"Niepolomice Podgrabie (nz)","",50.038647,20.150329,,,0,,,
stop_928_129602,,"Niepolomice Podgrabie (nz)","",50.038925,20.151864,,,0,,,
stop_929_129701,,"Niepolomice Pasternik (nz)","",50.040915,20.166249,,,0,,,
stop_929_129702,,"Niepolomice Pasternik (nz)","",50.040903,20.167083,,,0,,,
stop_930_129801,,"Niepolomice Katek (nz)","",50.039009,20.173009,,,0,,,
stop_930_129802,,"Niepolomice Katek (nz)","",50.038969,20.173534,,,0,,,
stop_931_129901,,"Niepolomice Poreby (nz)","",50.037228,20.18001,,,0,,,
stop_931_129902,,"Niepolomice Poreby (nz)","",50.037073,20.18095,,,0,,,
stop_932_130001,,"Niepolomice Diesla (nz)","",50.033918,20.188287,,,0,,,
stop_932_130002,,"Niepolomice Diesla (nz)","",50.033857,20.189071,,,0,,,
stop_933_130101,,"Niepolomice Wodna (nz)","",50.033454,20.192653,,,0,,,
stop_933_130102,,"Niepolomice Wodna (nz)","",50.032332,20.193005,,,0,,,
stop_934_130201,,"Niepolomice Plaszowska I (nz)","",50.031098,20.197912,,,0,,,
stop_934_130202,,"Niepolomice Plaszowska I (nz)","",50.030864,20.198252,,,0,,,
stop_935_130301,,"Niepolomice Kosciuszki (nz)","",50.028823,20.205876,,,0,,,
stop_935_130302,,"Niepolomice Kosciuszki (nz)","",50.029048,20.206351,,,0,,,
stop_936_130501,,"Zakrzow (nz)","",50.008944,20.143272,,,0,,,
stop_936_130502,,"Zakrzow (nz)","",50.009736,20.146064,,,0,,,
stop_937_130601,,"Niepolomice Boryczow (nz)","",50.0234,20.1987,,,0,,,
stop_937_130602,,"Niepolomice Boryczow (nz)","",50.0234,20.1987,,,0,,,
stop_938_130701,,"Niepolomice Wielicka (nz)","",50.0194,20.1923,,,0,,,
stop_938_130702,,"Niepolomice Wielicka (nz)","",50.0194,20.1923,,,0,,,
stop_939_130801,,"Staniatki Wiadukt (nz)","",50.015762,20.177381,,,0,,,
stop_939_130802,,"Staniatki Wiadukt (nz)","",50.016444,20.180638,,,0,,,
stop_940_130901,,"Podleze Centrum (nz)","",50.014201,20.170679,,,0,,,
stop_940_130902,,"Podleze Centrum (nz)","",50.014302,20.171416,,,0,,,
stop_941_131001,,"Podleze Straz (nz)","",50.01344,20.164556,,,0,,,
stop_942_131101,,"Podleze Balachowka (nz)","",50.010719,20.1515,,,0,,,
stop_942_131102,,"Podleze Balachowka (nz)","",50.010896,20.152152,,,0,,,
stop_943_131301,,"Ochmanow Oknoplast (nz)","",50.003391,20.127488,,,0,,,
stop_944_131501,,"Slomniki Osiedle","",50.2452,20.0851,,,0,,,
stop_945_131601,,"Slomniki Rynek","",50.2407,20.0806,,,0,,,
stop_945_131691,,"Slomniki Rynek","",50.2407,20.0806,,,0,,,
stop_946_131701,,"Slomniki Zagloby (nz)","",50.234446,20.082116,,,0,,,
stop_946_131702,,"Slomniki Zagloby (nz)","",50.2344,20.0819,,,0,,,
stop_948_131901,,"Marszowice Gory (nz)","",50.170667,20.096179,,,0,,,
stop_948_131902,,"Marszowice Gory (nz)","",50.170984,20.095845,,,0,,,
stop_949_132001,,"Wysiolek Luborzycki Radwany (nz)","",50.163688,20.100065,,,0,,,
stop_949_132002,,"Wysiolek Luborzycki Radwany (nz)","",50.163672,20.099977,,,0,,,
stop_950_132301,,"Polanowice Kolonia (nz)","",50.193467,20.09167,,,0,,,
stop_950_132302,,"Polanowice Kolonia (nz)","",50.193159,20.091685,,,0,,,
stop_951_132501,,"Ratajow Skrzyzowanie (nz)","",50.230904,20.082109,,,0,,,
stop_951_132502,,"Ratajow Skrzyzowanie (nz)","",50.229904,20.081989,,,0,,,
stop_952_132601,,"Niedzwiedz PKP (nz)","",50.211954,20.085909,,,0,,,
stop_952_132602,,"Niedzwiedz PKP (nz)","",50.211549,20.08597,,,0,,,
stop_953_132701,,"Niedzwiedz Felix (nz)","",50.223757,20.082026,,,0,,,
stop_953_132702,,"Niedzwiedz Felix (nz)","",50.223854,20.081921,,,0,,,
stop_955_132901,,"Ochodza Dom Ludowy (nz)","",49.9667,19.7417,,,0,,,
stop_955_132902,,"Ochodza Dom Ludowy (nz)","",49.9667,19.7417,,,0,,,
stop_956_133001,,"Ochodza Staw (nz)","",49.9701,19.746,,,0,,,
stop_956_133002,,"Ochodza Staw (nz)","",49.9701,19.746,,,0,,,
stop_957_133101,,"Ochodza Odwisle","",49.9778,19.7506,,,0,,,
stop_958_133201,,"Wola Luborzycka Dzialki (nz)","",50.155264,20.115767,,,0,,,
stop_958_133202,,"Wola Luborzycka Dzialki (nz)","",50.154756,20.115796,,,0,,,
stop_959_133601,,"Wola Radziszowska Podgazle (nz)","",49.90994,19.793687,,,0,,,
stop_959_133602,,"Wola Radziszowska Podgazle (nz)","",49.909559,19.792091,,,0,,,
stop_961_134101,,"Rybna Zagorze (nz)","",50.032772,19.634939,,,0,,,
stop_962_134601,,"Bunscha (nz)","",50.011854,19.883089,,,0,,,
stop_962_134602,,"Bunscha (nz)","",50.012728,19.883885,,,0,,,
stop_963_134701,,"Konary Sek (nz)","",49.93537,19.926425,,,0,,,
stop_963_134702,,"Konary Sek (nz)","",49.935433,19.927506,,,0,,,
stop_964_135201,,"Giebultow Zbiornik (nz)","",50.1475,19.8752,,,0,,,
stop_964_135202,,"Giebultow Zbiornik (nz)","",50.1475,19.8752,,,0,,,
stop_965_135301,,"Modlniczka Poligon (nz)","",50.115374,19.867777,,,0,,,
stop_965_135302,,"Modlniczka Poligon (nz)","",50.115344,19.867899,,,0,,,
stop_967_136001,,"Plac Wszystkich swietych","",50.0591,19.9376,,,0,,,
stop_967_136002,,"Plac Wszystkich swietych","",50.0591,19.9376,,,0,,,
stop_968_136401,,"Wielkie Drogi (nz)","",49.958815,19.721564,,,0,,,
stop_968_136402,,"Wielkie Drogi (nz)","",49.958873,19.722888,,,0,,,
stop_969_136501,,"Czulowek Kapliczka","",50.042302,19.67995,,,0,,,
stop_971_136701,,"Rybna Dolna","",50.039698,19.634146,,,0,,,
stop_972_136801,,"Rybna Granica (nz)","",50.038013,19.643091,,,0,,,
stop_972_136802,,"Rybna Granica (nz)","",50.037977,19.643103,,,0,,,
stop_973_137001,,"Raczna Kosciol (nz)","",50.011036,19.756806,,,0,,,
stop_973_137002,,"Raczna Kosciol (nz)","",50.011057,19.75665,,,0,,,
stop_974_137101,,"Fort Winnica (nz)","",50.023321,19.865506,,,0,,,
stop_974_137102,,"Fort Winnica (nz)","",50.022531,19.866406,,,0,,,
stop_975_137201,,"Winnicka (nz)","",50.019814,19.872195,,,0,,,
stop_975_137202,,"Winnicka (nz)","",50.02007,19.871132,,,0,,,
stop_976_137501,,"Fiszera","",50.08547,19.896846,,,0,,,
stop_977_137601,,"Radzikowskiego Osiedle","",50.086321,19.893999,,,0,,,
stop_979_245301,,"Centrum JP II","",50.012378,19.937273,,,0,,,
stop_979_245391,,"Centrum JP II","",50.012403,19.937202,,,0,,,
stop_980_247101,,"Skawina Os.Radziszowskie (nz)","",49.962363,19.816676,,,0,,,
stop_980_247102,,"Skawina Os.Radziszowskie (nz)","",49.961232,19.8162,,,0,,,
stop_981_247201,,"Skawina Radziszowska (nz)","",49.969352,19.822644,,,0,,,
stop_981_247202,,"Skawina Radziszowska (nz)","",49.969422,19.822734,,,0,,,
stop_982_247301,,"Skawina Ajka","",49.971308,19.829252,,,0,,,
stop_982_247302,,"Skawina Ajka","",49.970904,19.829224,,,0,,,
stop_982_247391,,"Skawina Ajka","",49.97131,19.829246,,,0,,,
stop_982_247392,,"Skawina Ajka","",49.97088,19.829199,,,0,,,
stop_983_247401,,"Skawina Popieluszki","",49.9745,19.8308,,,0,,,
stop_983_247402,,"Skawina Popieluszki","",49.974229,19.830678,,,0,,,
stop_983_247492,,"Skawina Popieluszki","",49.974186,19.830668,,,0,,,
stop_984_247501,,"Skawina Cmentarz","",49.97523,19.831111,,,0,,,
stop_984_247502,,"Skawina Cmentarz","",49.975828,19.831136,,,0,,,
stop_984_247591,,"Skawina Cmentarz","",49.975204,19.831104,,,0,,,
stop_985_247601,,"Skawina Podlipki","",49.987661,19.843114,,,0,,,
stop_985_247602,,"Skawina Podlipki","",49.98858,19.844599,,,0,,,
stop_986_247701,,"Radziszow Stare Sanatorium (nz)","",49.909435,19.827568,,,0,,,
stop_986_247702,,"Radziszow Stare Sanatorium (nz)","",49.909655,19.827158,,,0,,,
stop_987_247801,,"Skawina Tyniecka Osiedle","",49.978034,19.820048,,,0,,,
stop_987_247802,,"Skawina Tyniecka Osiedle","",49.978379,19.819993,,,0,,,
stop_988_247901,,"Skawina Tyniecka","",49.984363,19.816484,,,0,,,
stop_988_247902,,"Skawina Tyniecka","",49.984806,19.815929,,,0,,,
stop_989_248001,,"Skawina Samborek Most","",49.988873,19.811085,,,0,,,
stop_989_248002,,"Skawina Samborek Most","",49.98885,19.811104,,,0,,,
stop_990_248101,,"Skawina Korabniki","",49.974791,19.858378,,,0,,,
stop_990_248191,,"Skawina Korabniki","",49.974761,19.858414,,,0,,,
stop_990_248195,,"Skawina Korabniki","",49.974791,19.858378,,,0,,,
stop_991_248401,,"Kopanka Kapliczka (nz)","",49.982029,19.780498,,,0,,,
stop_991_248402,,"Kopanka Kapliczka (nz)","",49.981948,19.779594,,,0,,,
stop_992_248501,,"Kopanka Szkola","",49.983684,19.789898,,,0,,,
stop_992_248502,,"Kopanka Szkola","",49.983711,19.789274,,,0,,,
stop_993_248601,,"Skawina Robotnicza","",49.981554,19.801339,,,0,,,
stop_993_248602,,"Skawina Robotnicza","",49.981459,19.800545,,,0,,,
stop_994_248701,,"Skawina Energetykow (nz)","",49.981808,19.810174,,,0,,,
stop_994_248702,,"Skawina Energetykow (nz)","",49.981474,19.810643,,,0,,,
stop_995_248801,,"Jurczyce Dom Ludowy","",49.938401,19.780612,,,0,,,
stop_995_248802,,"Jurczyce Dom Ludowy","",49.938514,19.781536,,,0,,,
stop_996_248901,,"Jurczyce Szkola (nz)","",49.938586,19.78669,,,0,,,
stop_996_248902,,"Jurczyce Szkola (nz)","",49.938822,19.785896,,,0,,,
stop_997_249001,,"Jurczyce Podole (nz)","",49.938705,19.791165,,,0,,,
stop_997_249002,,"Jurczyce Podole (nz)","",49.938759,19.790636,,,0,,,
stop_998_249101,,"Radziszow Za Mogilka (nz)","",49.9385,19.8011,,,0,,,
stop_998_249102,,"Radziszow Za Mogilka (nz)","",49.9385,19.8011,,,0,,,
stop_999_249201,,"Grabie Kuznia (nz)","",49.9278,19.7393,,,0,,,
stop_999_249202,,"Grabie Kuznia (nz)","",49.9278,19.7393,,,0,,,
stop_1001_249401,,"Skawina Nad Potokiem (nz)","",49.954374,19.815177,,,0,,,
stop_1001_249402,,"Skawina Nad Potokiem (nz)","",49.954182,19.815196,,,0,,,
stop_1002_249501,,"Zabawa (nz)","",49.994681,20.090995,,,0,,,
stop_1002_249502,,"Zabawa (nz)","",49.994198,20.089778,,,0,,,
stop_1003_249601,,"Mala Wies (nz)","",49.998709,20.102056,,,0,,,
stop_1003_249602,,"Mala Wies (nz)","",49.998788,20.10202,,,0,,,
stop_1004_249701,,"Sulkow (nz)","",49.999379,20.111588,,,0,,,
stop_1004_249702,,"Sulkow (nz)","",49.999292,20.11018,,,0,,,
stop_1005_249901,,"Mogilany Cicha (nz)","",49.937964,19.893086,,,0,,,
stop_1005_249991,,"Mogilany Cicha (nz)","",49.938003,19.893103,,,0,,,
stop_1006_250001,,"Cracovia Blonia","",50.05879,19.921603,,,0,,,
stop_1006_250002,,"Cracovia Blonia","",50.058941,19.922048,,,0,,,
stop_1007_250101,,"Cracovia Stadion","",50.058139,19.92275,,,0,,,
stop_1008_250301,,"Wieliczka Park","",49.987271,20.049664,,,0,,,
stop_1008_250302,,"Wieliczka Park","",49.986918,20.050488,,,0,,,
stop_1009_250601,,"Michalowice Kwiaty Polne (nz)","",50.146795,19.963148,,,0,,,
stop_1009_250602,,"Michalowice Kwiaty Polne (nz)","",50.14693,19.962584,,,0,,,
stop_1011_251001,,"Zabawa I (nz)","",49.9926,20.0866,,,0,,,
stop_1012_251501,,"Wilenska","",50.082324,19.953821,,,0,,,
stop_1014_251801,,"Benedyktowicza (nz)","",50.047593,19.88902,,,0,,,
stop_1014_251802,,"Benedyktowicza (nz)","",50.047594,19.889756,,,0,,,
stop_1015_252401,,"Lindego (nz)","",50.08079,19.872021,,,0,,,
stop_1015_252402,,"Lindego (nz)","",50.080861,19.869682,,,0,,,
stop_1015_252403,,"Lindego (nz)","",50.080013,19.870674,,,0,,,
stop_1016_252501,,"Mydlniki Granica Miasta (nz)","",50.089944,19.837576,,,0,,,
stop_1016_252502,,"Mydlniki Granica Miasta (nz)","",50.090269,19.837013,,,0,,,
stop_1017_252601,,"Pachonskiego","",50.095263,19.931549,,,0,,,
stop_1017_252602,,"Pachonskiego","",50.095178,19.931351,,,0,,,
stop_1018_252701,,"Pradnik Bialy","",50.096371,19.930476,,,0,,,
stop_1019_252801,,"Batalionu 'Skala' AK","",50.088846,19.923397,,,0,,,
stop_1019_252802,,"Batalionu 'Skala' AK","",50.088883,19.923317,,,0,,,
stop_1020_252901,,"Piaszczysta","",50.09636,19.932565,,,0,,,
stop_1020_252902,,"Piaszczysta","",50.096624,19.931578,,,0,,,
stop_1021_253001,,"Przybyszewskiego","",50.07109,19.897538,,,0,,,
stop_1021_253002,,"Przybyszewskiego","",50.07062,19.899223,,,0,,,
stop_1022_253102,,"Cmentarz Rakowicki Zachod (nz)","",50.075635,19.946836,,,0,,,
stop_1022_253103,,"Cmentarz Rakowicki Zachod (nz)","",50.076268,19.947656,,,0,,,
stop_1023_253201,,"Bosakow","",50.082359,19.963131,,,0,,,
stop_1023_253202,,"Bosakow","",50.083296,19.964289,,,0,,,
stop_1024_253301,,"Armii Krajowej","",50.071699,19.891086,,,0,,,
stop_1024_253302,,"Armii Krajowej","",50.07196,19.890755,,,0,,,
stop_1025_253401,,"Olszanica Ogrodki Dzialkowe (nz)","",50.064389,19.818608,,,0,,,
stop_1025_253402,,"Olszanica Ogrodki Dzialkowe (nz)","",50.064389,19.818508,,,0,,,
stop_1026_253803,,"Misnienska","",50.094611,20.00013,,,0,,,
stop_1026_253804,,"Misnienska","",50.094403,20.000575,,,0,,,
stop_1027_253903,,"Rondo Hipokratesa","",50.090064,20.023832,,,0,,,
stop_1027_253904,,"Rondo Hipokratesa","",50.090378,20.022824,,,0,,,
stop_1027_253905,,"Rondo Hipokratesa","",50.090874,20.020951,,,0,,,
stop_1027_253906,,"Rondo Hipokratesa","",50.090912,20.021848,,,0,,,
stop_1027_253907,,"Rondo Hipokratesa","",50.090189,20.021168,,,0,,,
stop_1028_254101,,"Nad Dlubnia","",50.089317,20.040201,,,0,,,
stop_1028_254102,,"Nad Dlubnia","",50.089232,20.038113,,,0,,,
stop_1029_254201,,"Makuszynskiego (nz)","",50.08949,20.043771,,,0,,,
stop_1029_254202,,"Makuszynskiego (nz)","",50.089358,20.042101,,,0,,,
stop_1030_254303,,"Wankowicza","",50.086906,20.045959,,,0,,,
stop_1030_254304,,"Wankowicza","",50.087194,20.047639,,,0,,,
stop_1030_254305,,"Wankowicza","",50.08824,20.047228,,,0,,,
stop_1030_254306,,"Wankowicza","",50.086604,20.04735,,,0,,,
stop_1031_254401,,"Soltysowska (nz)","",50.066916,20.01214,,,0,,,
stop_1031_254402,,"Soltysowska (nz)","",50.066903,20.012241,,,0,,,
stop_1032_254501,,"Soltysowska Zaklady","",50.064067,20.014751,,,0,,,
stop_1032_254502,,"Soltysowska Zaklady","",50.064175,20.014247,,,0,,,
stop_1033_254601,,"Soltysowska Osiedle","",50.064227,20.018999,,,0,,,
stop_1033_254602,,"Soltysowska Osiedle","",50.064369,20.018437,,,0,,,
stop_1034_254701,,"Sieroszewskiego (nz)","",50.0661,20.051162,,,0,,,
stop_1034_254702,,"Sieroszewskiego (nz)","",50.066122,20.051437,,,0,,,
stop_1036_255101,,"Barwna (nz)","",50.107529,20.151693,,,0,,,
stop_1036_255102,,"Barwna (nz)","",50.107398,20.151664,,,0,,,
stop_1037_255201,,"Wegrzynowice Dol (nz)","",50.103792,20.149611,,,0,,,
stop_1037_255202,,"Wegrzynowice Dol (nz)","",50.103518,20.149421,,,0,,,
stop_1039_255401,,"Wadow Glinik (nz)","",50.092765,20.133093,,,0,,,
stop_1039_255402,,"Wadow Glinik (nz)","",50.09275,20.133278,,,0,,,
stop_1040_255601,,"Siwka (nz)","",50.05687,20.014913,,,0,,,
stop_1040_255602,,"Siwka (nz)","",50.057248,20.01464,,,0,,,
stop_1041_255701,,"Lasek Mogilski","",50.054292,20.0495,,,0,,,
stop_1041_255702,,"Lasek Mogilski","",50.055575,20.049642,,,0,,,
stop_1042_255801,,"Stare Wislisko","",50.059546,20.050241,,,0,,,
stop_1042_255802,,"Stare Wislisko","",50.059212,20.050304,,,0,,,
stop_1043_255901,,"Koszykarska","",50.052638,19.990018,,,0,,,
stop_1043_255902,,"Koszykarska","",50.052466,19.988905,,,0,,,
stop_1044_256001,,"Park 'Skaly Twardowskiego' (nz)","",50.037965,19.898488,,,0,,,
stop_1044_256002,,"Park 'Skaly Twardowskiego' (nz)","",50.038104,19.898986,,,0,,,
stop_1045_256101,,"Boleslawa smialego","",50.01828,19.817893,,,0,,,
stop_1045_256102,,"Boleslawa smialego","",50.018335,19.817261,,,0,,,
stop_1046_256201,,"Tyniecka Autostrada (nz)","",50.021714,19.827049,,,0,,,
stop_1046_256202,,"Tyniecka Autostrada (nz)","",50.021941,19.827666,,,0,,,
stop_1047_256301,,"Kolna (nz)","",50.023993,19.832147,,,0,,,
stop_1047_256302,,"Kolna (nz)","",50.024979,19.834999,,,0,,,
stop_1047_256303,,"Kolna (nz)","",50.02453,19.83301,,,0,,,
stop_1048_256401,,"Waly Wislane (nz)","",50.02752,19.847181,,,0,,,
stop_1048_256402,,"Waly Wislane (nz)","",50.02749,19.847278,,,0,,,
stop_1049_256501,,"Bagienna","",50.010195,19.840897,,,0,,,
stop_1049_256502,,"Bagienna","",50.00978,19.841236,,,0,,,
stop_1050_256601,,"Fort Bodzow (nz)","",50.031534,19.865019,,,0,,,
stop_1050_256602,,"Fort Bodzow (nz)","",50.031534,19.865019,,,0,,,
stop_1051_256701,,"Gorka Pychowicka (nz)","",50.033931,19.875702,,,0,,,
stop_1051_256702,,"Gorka Pychowicka (nz)","",50.033911,19.875727,,,0,,,
stop_1052_256801,,"Rodzinna","",50.035133,19.885576,,,0,,,
stop_1052_256802,,"Rodzinna","",50.035156,19.885714,,,0,,,
stop_1053_256901,,"Pychowice","",50.036668,19.893983,,,0,,,
stop_1053_256902,,"Pychowice","",50.036834,19.895112,,,0,,,
stop_1054_257001,,"Surzyckiego","",50.039567,20.003638,,,0,,,
stop_1054_257002,,"Surzyckiego","",50.039011,20.005378,,,0,,,
stop_1054_257003,,"Surzyckiego","",50.038913,20.004197,,,0,,,
stop_1055_257101,,"Sulkowskiego","",50.023529,19.968771,,,0,,,
stop_1055_257102,,"Sulkowskiego","",50.023759,19.969253,,,0,,,
stop_1056_257301,,"Albatrosow","",50.037972,20.017849,,,0,,,
stop_1056_257302,,"Albatrosow","",50.03755,20.019584,,,0,,,
stop_1056_257303,,"Albatrosow","",50.037363,20.018245,,,0,,,
stop_1057_257401,,"Biskupinska (nz)","",50.036247,20.013537,,,0,,,
stop_1057_257402,,"Biskupinska (nz)","",50.036291,20.01347,,,0,,,
stop_1058_257601,,"Zajezdnia Plaszow","",50.035557,20.01161,,,0,,,
stop_1058_257602,,"Zajezdnia Plaszow","",50.035267,20.011669,,,0,,,
stop_1059_257701,,"Zlocieniowa","",50.016118,20.051159,,,0,,,
stop_1059_257702,,"Zlocieniowa","",50.01633,20.050555,,,0,,,
stop_1060_257801,,"Weigla","",50.012958,20.043096,,,0,,,
stop_1063_258101,,"Nowy Biezanow Poludnie","",50.012658,20.015607,,,0,,,
stop_1064_258203,,"Nowy Prokocim","",50.015936,20.011799,,,0,,,
stop_1064_258204,,"Nowy Prokocim","",50.016002,20.011577,,,0,,,
stop_1065_258301,,"Hallera (nz)","",50.003373,19.995216,,,0,,,
stop_1065_258302,,"Hallera (nz)","",50.003736,19.993501,,,0,,,
stop_1066_258401,,"Slona Woda","",50.003439,20.003386,,,0,,,
stop_1066_258402,,"Slona Woda","",50.003656,20.003884,,,0,,,
stop_1067_258501,,"Kosocicka (nz)","",50.004554,20.011629,,,0,,,
stop_1067_258502,,"Kosocicka (nz)","",50.004329,20.010834,,,0,,,
stop_1068_258601,,"Jerzmanowskiego","",50.010623,20.008013,,,0,,,
stop_1068_258602,,"Jerzmanowskiego","",50.009686,20.009378,,,0,,,
stop_1069_258701,,"Fort Swoszowice (nz)","",49.98915,19.95633,,,0,,,
stop_1069_258702,,"Fort Swoszowice (nz)","",49.98903,19.95586,,,0,,,
stop_1070_258801,,"Geologow (nz)","",49.985038,19.978813,,,0,,,
stop_1070_258802,,"Geologow (nz)","",49.985326,19.97763,,,0,,,
stop_1071_258901,,"Malinowskiego (nz)","",49.984061,19.984207,,,0,,,
stop_1071_258902,,"Malinowskiego (nz)","",49.984187,19.983013,,,0,,,
stop_1072_259001,,"Druzbackiej","",49.982093,19.989371,,,0,,,
stop_1072_259002,,"Druzbackiej","",49.982361,19.989361,,,0,,,
stop_1073_259201,,"zelazowskiego (nz)","",49.988646,20.000083,,,0,,,
stop_1073_259202,,"zelazowskiego (nz)","",49.988401,20.000225,,,0,,,
stop_1074_259301,,"Szczegow","",49.993161,19.996306,,,0,,,
stop_1074_259302,,"Szczegow","",49.993674,19.995471,,,0,,,
stop_1075_259401,,"Niebieska Autostrada (nz)","",49.999667,19.988501,,,0,,,
stop_1075_259402,,"Niebieska Autostrada (nz)","",49.999078,19.988696,,,0,,,
stop_1076_259501,,"Cechowa (nz)","",50.007109,19.972718,,,0,,,
stop_1076_259502,,"Cechowa (nz)","",50.006853,19.970975,,,0,,,
stop_1077_259601,,"luzycka (nz)","",50.007802,19.97463,,,0,,,
stop_1077_259602,,"luzycka (nz)","",50.007993,19.974265,,,0,,,
stop_1078_259701,,"Bochenka (nz)","",50.009909,19.971398,,,0,,,
stop_1078_259702,,"Bochenka (nz)","",50.010239,19.971128,,,0,,,
stop_1079_259801,,"Wrony","",49.995461,19.852584,,,0,,,
stop_1079_259802,,"Wrony","",49.995028,19.851469,,,0,,,
stop_1079_259803,,"Wrony","",49.995472,19.85314,,,0,,,
stop_1080_259901,,"Warchalowskiego","",49.990264,19.859522,,,0,,,
stop_1080_259902,,"Warchalowskiego","",49.990539,19.859511,,,0,,,
stop_1082_260101,,"Krowodrza Urzedy Skarbowe","",50.084444,19.930583,,,0,,,
stop_1082_260102,,"Krowodrza Urzedy Skarbowe","",50.084946,19.930688,,,0,,,
stop_1083_260201,,"Sudolska","",50.092041,19.964564,,,0,,,
stop_1084_260301,,"Bulwarowa Ogrodki Dzialkowe (nz)","",50.071103,20.053482,,,0,,,
stop_1085_260401,,"luczynskiego (nz)","",50.01306,19.913399,,,0,,,
stop_1086_260501,,"swidzinskiego (nz)","",50.010472,20.032508,,,0,,,
stop_1087_260601,,"Natansona","",50.098274,19.951199,,,0,,,
stop_1087_260602,,"Natansona","",50.098242,19.951701,,,0,,,
stop_1088_260701,,"Slomczynskiego","",50.098414,19.958701,,,0,,,
stop_1088_260702,,"Slomczynskiego","",50.098298,19.957566,,,0,,,
stop_1089_260803,,"Dworzec Glowny Zachod","",50.06857,19.94438,,,0,,,
stop_1089_260804,,"Dworzec Glowny Zachod","",50.067243,19.944726,,,0,,,
stop_1089_260806,,"Dworzec Glowny Zachod","",50.067855,19.945212,,,0,,,
stop_1090_261001,,"slaskiego (nz)","",50.025474,19.850599,,,0,,,
stop_1090_261002,,"slaskiego (nz)","",50.025695,19.851159,,,0,,,
stop_1091_261401,,"Drozdzowa","",50.011904,20.040456,,,0,,,
stop_1092_261501,,"Gaik (nz)","",50.108692,19.878485,,,0,,,
stop_1092_261502,,"Gaik (nz)","",50.108723,19.879069,,,0,,,
stop_1093_261601,,"Na Budzyniu","",50.111743,19.893172,,,0,,,
stop_1093_261602,,"Na Budzyniu","",50.111823,19.893243,,,0,,,
stop_1094_261701,,"Jordanowska (nz)","",50.094844,19.914957,,,0,,,
stop_1094_261702,,"Jordanowska (nz)","",50.094842,19.915059,,,0,,,
stop_1095_261901,,"Leszka Bialego","",50.095853,20.051752,,,0,,,
stop_1095_261902,,"Leszka Bialego","",50.095819,20.050791,,,0,,,
stop_1096_262101,,"Zeslawice Ogrodki Dzialkowe (nz)","",50.105677,20.049696,,,0,,,
stop_1096_262102,,"Zeslawice Ogrodki Dzialkowe (nz)","",50.105728,20.049659,,,0,,,
stop_1097_262501,,"Aleja Waszyngtona (nz)","",50.053256,19.897695,,,0,,,
stop_1097_262502,,"Aleja Waszyngtona (nz)","",50.053267,19.897538,,,0,,,
stop_1098_262601,,"Jana Kazimierza","",50.095095,20.047229,,,0,,,
stop_1098_262602,,"Jana Kazimierza","",50.094951,20.047007,,,0,,,
stop_1099_262701,,"Bystronia (nz)","",50.109867,20.114853,,,0,,,
stop_1099_262702,,"Bystronia (nz)","",50.109802,20.114774,,,0,,,
stop_1100_262801,,"Garlica Duchowna Rozjazd","",50.1502,19.9218,,,0,,,
stop_1100_262802,,"Garlica Duchowna Rozjazd","",50.1502,19.9218,,,0,,,
stop_1100_262803,,"Garlica Duchowna Rozjazd","",50.149051,19.921899,,,0,,,
stop_1100_262804,,"Garlica Duchowna Rozjazd","",50.148838,19.922088,,,0,,,
stop_1101_262901,,"Garliczka Chochol (nz)","",50.1565,19.9188,,,0,,,
stop_1101_262902,,"Garliczka Chochol (nz)","",50.1565,19.9188,,,0,,,
stop_1102_263001,,"Owczary Gorna (nz)","",50.162,19.9234,,,0,,,
stop_1102_263002,,"Owczary Gorna (nz)","",50.162,19.9234,,,0,,,
stop_1104_263201,,"Owczary Gajowa (nz)","",50.1695,19.9257,,,0,,,
stop_1104_263202,,"Owczary Gajowa (nz)","",50.1695,19.9257,,,0,,,
stop_1105_263301,,"Belwederczykow (nz)","",50.105901,19.964789,,,0,,,
stop_1105_263302,,"Belwederczykow (nz)","",50.106163,19.964675,,,0,,,
stop_1106_263401,,"Opatkowice Zadworze","",49.984912,19.919549,,,0,,,
stop_1106_263402,,"Opatkowice Zadworze","",49.985164,19.919444,,,0,,,
stop_1107_263501,,"Balice Grzybow (nz)","",50.090594,19.782771,,,0,,,
stop_1107_263502,,"Balice Grzybow (nz)","",50.090911,19.781912,,,0,,,
stop_1108_263601,,"Balice Lesna (nz)","",50.089874,19.786679,,,0,,,
stop_1108_263602,,"Balice Lesna (nz)","",50.089936,19.786705,,,0,,,
stop_1110_263801,,"Libertow Dolny (nz)","",49.979242,19.910654,,,0,,,
stop_1110_263802,,"Libertow Dolny (nz)","",49.979665,19.910825,,,0,,,
stop_1111_263901,,"Wazewskiego","",49.983778,19.912807,,,0,,,
stop_1111_263902,,"Wazewskiego","",49.982902,19.911942,,,0,,,
stop_1112_264001,,"Wrozenicka (nz)","",50.112273,20.17825,,,0,,,
stop_1112_264002,,"Wrozenicka (nz)","",50.112298,20.178215,,,0,,,
stop_1113_264101,,"Wrozenice Gorka (nz)","",50.112815,20.182514,,,0,,,
stop_1113_264102,,"Wrozenice Gorka (nz)","",50.112922,20.182503,,,0,,,
stop_1114_264201,,"Hektary (nz)","",50.109755,20.175688,,,0,,,
stop_1114_264202,,"Hektary (nz)","",50.109677,20.175516,,,0,,,
stop_1115_264301,,"Ostafina","",50.105017,20.171362,,,0,,,
stop_1115_264302,,"Ostafina","",50.105004,20.171254,,,0,,,
stop_1116_264401,,"Koscielniki","",50.090537,20.175226,,,0,,,
stop_1116_264402,,"Koscielniki","",50.089979,20.175384,,,0,,,
stop_1117_264501,,"Wyciaze Zachod (nz)","",50.077817,20.162794,,,0,,,
stop_1117_264502,,"Wyciaze Zachod (nz)","",50.077825,20.161904,,,0,,,
stop_1118_264601,,"Szymanskiego (nz)","",50.075126,20.139979,,,0,,,
stop_1118_264602,,"Szymanskiego (nz)","",50.075091,20.138791,,,0,,,
stop_1118_264604,,"Szymanskiego (nz)","",50.074858,20.139658,,,0,,,
stop_1118_264691,,"Szymanskiego (nz)","",50.075097,20.139963,,,0,,,
stop_1119_264701,,"Wyciaska (nz)","",50.069613,20.162991,,,0,,,
stop_1119_264702,,"Wyciaska (nz)","",50.069722,20.162266,,,0,,,
stop_1120_264801,,"Brzeska (nz)","",50.072409,20.189748,,,0,,,
stop_1120_264802,,"Brzeska (nz)","",50.072571,20.189627,,,0,,,
stop_1121_264901,,"Zakepie (nz)","",50.06799,20.189709,,,0,,,
stop_1121_264902,,"Zakepie (nz)","",50.067747,20.189639,,,0,,,
stop_1122_265001,,"Truskawkowa (nz)","",50.047777,20.128093,,,0,,,
stop_1122_265002,,"Truskawkowa (nz)","",50.047613,20.128046,,,0,,,
stop_1123_265101,,"Chalupki Gorne (nz)","",50.054651,20.125103,,,0,,,
stop_1123_265102,,"Chalupki Gorne (nz)","",50.054993,20.125641,,,0,,,
stop_1124_265201,,"Branice Osrodek Zdrowia (nz)","",50.05843,20.128897,,,0,,,
stop_1124_265202,,"Branice Osrodek Zdrowia (nz)","",50.05833,20.129412,,,0,,,
stop_1125_265301,,"Ciekowiec (nz)","",50.050463,20.164266,,,0,,,
stop_1125_265302,,"Ciekowiec (nz)","",50.050345,20.16434,,,0,,,
stop_1126_265401,,"Rzepakowa swietlica (nz)","",50.057568,20.158634,,,0,,,
stop_1126_265402,,"Rzepakowa swietlica (nz)","",50.057577,20.158723,,,0,,,
stop_1127_265501,,"Oczyszczalnia sciekow 'Kujawy' (nz)","",50.051828,20.101749,,,0,,,
stop_1127_265502,,"Oczyszczalnia sciekow 'Kujawy' (nz)","",50.052787,20.10178,,,0,,,
stop_1128_265601,,"Nadbrzezie (nz)","",50.070066,20.101767,,,0,,,
stop_1128_265602,,"Nadbrzezie (nz)","",50.069965,20.101718,,,0,,,
stop_1129_265701,,"Dymarek (nz)","",50.059011,20.103686,,,0,,,
stop_1129_265702,,"Dymarek (nz)","",50.058462,20.10233,,,0,,,
stop_1130_268603,,"Lipinskiego","",50.030677,19.924842,,,0,,,
stop_1130_268604,,"Lipinskiego","",50.030497,19.92473,,,0,,,
stop_1131_268703,,"Grota-Roweckiego","",50.031278,19.920209,,,0,,,
stop_1131_268704,,"Grota-Roweckiego","",50.031394,19.92114,,,0,,,
stop_1131_268705,,"Grota-Roweckiego","",50.031873,19.919911,,,0,,,
stop_1132_268804,,"Norymberska","",50.029987,19.913679,,,0,,,
stop_1132_268805,,"Norymberska","",50.029587,19.912069,,,0,,,
stop_1133_268901,,"Rostworowskiego","",50.028188,19.915274,,,0,,,
stop_1133_268902,,"Rostworowskiego","",50.027918,19.914244,,,0,,,
stop_1134_269003,,"Kampus UJ","",50.023862,19.901577,,,0,,,
stop_1134_269004,,"Kampus UJ","",50.02468,19.9025,,,0,,,
stop_1135_269103,,"Chmieleniec","",50.020154,19.897494,,,0,,,
stop_1135_269104,,"Chmieleniec","",50.020828,19.898706,,,0,,,
stop_1136_269401,,"Mochnaniec (nz)","",50.016653,19.881422,,,0,,,
stop_1136_269402,,"Mochnaniec (nz)","",50.016604,19.881492,,,0,,,
stop_1137_269501,,"Brzoskwinia Gora (nz)","",50.093404,19.729567,,,0,,,
stop_1137_269502,,"Brzoskwinia Gora (nz)","",50.09393,19.728942,,,0,,,
stop_1138_269701,,"Tomaszowice Gliniki (nz)","",50.1349,19.831482,,,0,,,
stop_1138_269702,,"Tomaszowice Gliniki (nz)","",50.13491,19.831504,,,0,,,
stop_1140_269901,,"Cmentarz Batowice Wschod (nz)","",50.102486,19.986821,,,0,,,
stop_1140_269902,,"Cmentarz Batowice Wschod (nz)","",50.102338,19.986019,,,0,,,
stop_1141_270001,,"Bedkowice Petla","",50.158634,19.747399,,,0,,,
stop_1143_270301,,"Pekowice","",50.1247,19.9015,,,0,,,
stop_1143_270391,,"Pekowice","",50.124677,19.901566,,,0,,,
stop_1146_270601,,"Libertow","",49.973777,19.907544,,,0,,,
stop_1146_270602,,"Libertow","",49.972924,19.906792,,,0,,,
stop_1146_270603,,"Libertow","",49.973324,19.905476,,,0,,,
stop_1146_270604,,"Libertow","",49.973478,19.906775,,,0,,,
stop_1147_270701,,"Libertow Szkola","",49.972455,19.898466,,,0,,,
stop_1147_270702,,"Libertow Szkola","",49.972513,19.898296,,,0,,,
stop_1148_270801,,"Brzyczyna","",49.9726,19.8691,,,0,,,
stop_1148_270803,,"Brzyczyna","",49.9726,19.8691,,,0,,,
stop_1149_271001,,"Libertow Krzyzowka","",49.971646,19.88401,,,0,,,
stop_1149_271002,,"Libertow Krzyzowka","",49.971702,19.883711,,,0,,,
stop_1150_271101,,"Libertow Dzialy (nz)","",49.972109,19.891484,,,0,,,
stop_1150_271102,,"Libertow Dzialy (nz)","",49.97219,19.891097,,,0,,,
stop_1153_272201,,"Wielicka Granica Miasta","",49.999852,20.028038,,,0,,,
stop_1153_272202,,"Wielicka Granica Miasta","",49.998854,20.028765,,,0,,,
stop_1153_272203,,"Wielicka Granica Miasta","",49.999187,20.026983,,,0,,,
stop_1155_272501,,"Biezanow Granica Miasta","",50.009772,20.064313,,,0,,,
stop_1155_272502,,"Biezanow Granica Miasta","",50.010872,20.065091,,,0,,,
stop_1156_272701,,"Ochmanow Otaczarnia (nz)","",50.002457,20.124362,,,0,,,
stop_1157_272801,,"Podleze Przedszkole (nz)","",50.0135,20.161824,,,0,,,
stop_1158_272901,,"Michalowice Osrodek Zdrowia","",50.161381,19.979749,,,0,,,
stop_1158_272902,,"Michalowice Osrodek Zdrowia","",50.162186,19.979307,,,0,,,
stop_1159_273001,,"Wieliczka Niepolomska (nz)","",49.9923,20.0858,,,0,,,
stop_1160_273201,,"Rzeszotary Tempo (nz)","",49.941549,19.989038,,,0,,,
stop_1160_273202,,"Rzeszotary Tempo (nz)","",49.941992,19.990428,,,0,,,
stop_1161_273301,,"Slomniki Kosciuszki","",50.2433,20.0828,,,0,,,
stop_1161_273302,,"Slomniki Kosciuszki","",50.2433,20.0828,,,0,,,
stop_1162_273601,,"M1 Nowohucka","",50.064118,20.004023,,,0,,,
stop_1162_273602,,"M1 Nowohucka","",50.063055,20.003566,,,0,,,
stop_1163_273701,,"Os. Mistrzejowice Nowe","",50.095149,20.020824,,,0,,,
stop_1163_273702,,"Os. Mistrzejowice Nowe","",50.094947,20.021348,,,0,,,
stop_1164_273801,,"Wadow Os.Kolejowe","",50.09695,20.128792,,,0,,,
stop_1164_273802,,"Wadow Os.Kolejowe","",50.097066,20.128806,,,0,,,
stop_1165_273901,,"Ks.Targosza (nz)","",50.042744,20.053188,,,0,,,
stop_1165_273902,,"Ks.Targosza (nz)","",50.042809,20.052433,,,0,,,
stop_1166_274001,,"Krzyszkowice Os.Szymanowskiego (nz)","",49.988845,20.03835,,,0,,,
stop_1166_274002,,"Krzyszkowice Os.Szymanowskiego (nz)","",49.988695,20.037278,,,0,,,
stop_1166_274004,,"Krzyszkowice Os.Szymanowskiego (nz)","",49.988695,20.037278,,,0,,,
stop_1167_274201,,"sw.Wawrzynca","",50.051019,19.951076,,,0,,,
stop_1167_274202,,"sw.Wawrzynca","",50.051495,19.950888,,,0,,,
stop_1168_274405,,"Plac Centralny im. R.Reagana","",50.072497,20.038871,,,0,,,
stop_1168_274408,,"Plac Centralny im. R.Reagana","",50.071171,20.03852,,,0,,,
stop_1168_274409,,"Plac Centralny im. R.Reagana","",50.071854,20.035079,,,0,,,
stop_1168_274490,,"Plac Centralny im. R.Reagana","",50.071854,20.035079,,,0,,,
stop_1169_274505,,"Rondo Kocmyrzowskie im. Ks. Gorzelanego","",50.078847,20.028144,,,0,,,
stop_1169_274506,,"Rondo Kocmyrzowskie im. Ks. Gorzelanego","",50.080351,20.026673,,,0,,,
stop_1169_274507,,"Rondo Kocmyrzowskie im. Ks. Gorzelanego","",50.080022,20.028824,,,0,,,
stop_1169_274508,,"Rondo Kocmyrzowskie im. Ks. Gorzelanego","",50.079084,20.026259,,,0,,,
stop_1170_274601,,"Prokocim Rynek","",50.023244,19.997899,,,0,,,
stop_1170_274672,,"Prokocim Rynek","",50.023729,19.996573,,,0,,,
stop_1171_275101,,"Glogera (nz)","",50.102614,19.927574,,,0,,,
stop_1171_275102,,"Glogera (nz)","",50.102271,19.927576,,,0,,,
stop_1172_275201,,"Glogera Granica Miasta (nz)","",50.104272,19.926456,,,0,,,
stop_1172_275202,,"Glogera Granica Miasta (nz)","",50.104322,19.926372,,,0,,,
stop_1173_275901,,"Szpital Okulistyczny","",50.099517,20.063809,,,0,,,
stop_1173_275991,,"Szpital Okulistyczny","",50.099369,20.064043,,,0,,,
stop_1175_276101,,"luczyce Zwierzyniec (nz)","",50.170703,20.068923,,,0,,,
stop_1175_276102,,"luczyce Zwierzyniec (nz)","",50.170927,20.068866,,,0,,,
stop_1177_276301,,"Goszcza Cmentarz (nz)","",50.1822,20.0685,,,0,,,
stop_1177_276302,,"Goszcza Cmentarz (nz)","",50.1822,20.0685,,,0,,,
stop_1178_276601,,"Gielda Balicka P+R (nz)","",50.081544,19.875566,,,0,,,
stop_1178_276602,,"Gielda Balicka P+R (nz)","",50.081567,19.875875,,,0,,,
stop_1180_276901,,"Bosutow Krakowska (nz)","",50.1151,19.9952,,,0,,,
stop_1180_276902,,"Bosutow Krakowska (nz)","",50.1151,19.9952,,,0,,,
stop_1181_277001,,"Garlica Murowana Kasztany (nz)","",50.1347,19.9228,,,0,,,
stop_1181_277002,,"Garlica Murowana Kasztany (nz)","",50.1347,19.9228,,,0,,,
stop_1182_277201,,"Libertow Zgodna (nz)","",49.9779,19.9092,,,0,,,
stop_1182_277202,,"Libertow Zgodna (nz)","",49.9779,19.9092,,,0,,,
stop_1183_277401,,"Radziszow Cmentarz (nz)","",49.9413,19.8065,,,0,,,
stop_1183_277402,,"Radziszow Cmentarz (nz)","",49.9413,19.8065,,,0,,,
stop_1184_277501,,"Nalkowskiej","",49.980895,19.873494,,,0,,,
stop_1184_277502,,"Nalkowskiej","",49.980679,19.873739,,,0,,,
stop_1184_277503,,"Nalkowskiej","",49.980401,19.87309,,,0,,,
stop_1185_277601,,"Petrazyckiego (nz)","",49.98177,19.878669,,,0,,,
stop_1185_277602,,"Petrazyckiego (nz)","",49.981831,19.879214,,,0,,,
stop_1186_277801,,"Rzeszotary Pod Debina (nz)","",49.938436,19.967834,,,0,,,
stop_1186_277802,,"Rzeszotary Pod Debina (nz)","",49.938421,19.967528,,,0,,,
stop_1187_277901,,"Budzyn Zalew na Piaskach (nz)","",50.049752,19.799586,,,0,,,
stop_1187_277902,,"Budzyn Zalew na Piaskach (nz)","",50.049238,19.799226,,,0,,,
stop_1188_278001,,"Budzyn Plaza Glowna (nz)","",50.047501,19.791758,,,0,,,
stop_1188_278002,,"Budzyn Plaza Glowna (nz)","",50.047808,19.791406,,,0,,,
stop_1189_278101,,"Budzyn Zalew Budzynski (nz)","",50.052251,19.783741,,,0,,,
stop_1189_278102,,"Budzyn Zalew Budzynski (nz)","",50.052391,19.783474,,,0,,,
stop_1190_278301,,"Bibice Cmentarz (nz)","",50.1257,19.9424,,,0,,,
stop_1190_278302,,"Bibice Cmentarz (nz)","",50.1257,19.9424,,,0,,,
stop_1191_278401,,"Zielonki Galicyjska (nz)","",50.122189,19.932461,,,0,,,
stop_1191_278402,,"Zielonki Galicyjska (nz)","",50.122537,19.93324,,,0,,,
stop_1192_278901,,"Zakole","",50.10889,20.053137,,,0,,,
stop_1192_278991,,"Zakole","",50.108889,20.053137,,,0,,,
stop_1193_279001,,"Lasek legowski (nz)","",50.052562,20.037858,,,0,,,
stop_1193_279002,,"Lasek legowski (nz)","",50.052465,20.037625,,,0,,,
stop_1194_279101,,"Stawowa","",50.095069,19.892586,,,0,,,
stop_1194_279102,,"Stawowa","",50.093826,19.892736,,,0,,,
stop_1194_279103,,"Stawowa","",50.093433,19.89348,,,0,,,
stop_1195_279202,,"Judyma Szkola","",50.000874,19.916813,,,0,,,
stop_1196_279601,,"Banacha","",50.1015,19.9642,,,0,,,
stop_1197_279701,,"Gorka Narodowa Wschod","",50.099881,19.964451,,,0,,,
stop_1198_280601,,"Poziomkowa","",50.103484,19.907652,,,0,,,
stop_1198_280602,,"Poziomkowa","",50.104272,19.906681,,,0,,,
stop_1200_280801,,"Ludwinow","",50.043381,19.935094,,,0,,,
stop_1200_280802,,"Ludwinow","",50.043106,19.93482,,,0,,,
stop_1201_281201,,"Os. Podwawelskie","",50.046056,19.932899,,,0,,,
stop_1201_281202,,"Os. Podwawelskie","",50.046056,19.932899,,,0,,,
stop_1202_281301,,"Kopanka Kosciol (nz)","",49.982602,19.796236,,,0,,,
stop_1202_281302,,"Kopanka Kosciol (nz)","",49.982812,19.795117,,,0,,,
stop_1203_281401,,"Wieliczka Klasnienska (nz)","",49.981153,20.056276,,,0,,,
stop_1203_281402,,"Wieliczka Klasnienska (nz)","",49.980904,20.055462,,,0,,,
stop_1204_281501,,"Wieliczka Sad","",49.980709,20.049448,,,0,,,
stop_1204_281502,,"Wieliczka Sad","",49.980489,20.051127,,,0,,,
stop_1205_281601,,"Wieliczka Solne Miasto","",49.98532,20.046174,,,0,,,
stop_1205_281602,,"Wieliczka Solne Miasto","",49.985787,20.045978,,,0,,,
stop_1206_281701,,"Krzyszkowice Krzyszkowicka","",49.989862,20.031986,,,0,,,
stop_1206_281702,,"Krzyszkowice Krzyszkowicka","",49.989975,20.031514,,,0,,,
stop_1207_282001,,"Skawina Wyspianskiego Szkola (nz)","",49.971826,19.853613,,,0,,,
stop_1207_282002,,"Skawina Wyspianskiego Szkola (nz)","",49.972093,19.854104,,,0,,,
stop_1208_285201,,"Wieliczka Goliana","",49.985197,20.061497,,,0,,,
stop_1208_285202,,"Wieliczka Goliana","",49.984659,20.059826,,,0,,,
stop_1209_285301,,"Skawina Graniczna (nz)","",49.976552,19.861165,,,0,,,
stop_1209_285302,,"Skawina Graniczna (nz)","",49.976627,19.861431,,,0,,,
stop_1210_285401,,"Skawina Bukowska (nz)","",49.961611,19.836412,,,0,,,
stop_1210_285402,,"Skawina Bukowska (nz)","",49.961966,19.836107,,,0,,,
stop_1211_285601,,"Gaj Kwiatowa (nz)","",49.957955,19.913087,,,0,,,
stop_1212_285701,,"Gaj Rudawa (nz)","",49.956148,19.903362,,,0,,,
stop_1213_285801,,"Gaj Zgody (nz)","",49.955666,19.8972,,,0,,,
stop_1214_286001,,"Pisary Kasztanowa (nz)","",50.140239,19.693161,,,0,,,
stop_1214_286002,,"Pisary Kasztanowa (nz)","",50.1402,19.6933,,,0,,,
stop_1215_286101,,"Krakow Airport","",50.071703,19.800605,,,0,,,
stop_1215_286102,,"Krakow Airport","",50.06834,19.8008,,,0,,,
stop_1217_286301,,"Skawina Centrum Sportowe","",49.971241,19.825415,,,0,,,
stop_1217_286302,,"Skawina Centrum Sportowe","",49.971212,19.825613,,,0,,,
stop_1218_286401,,"Kleszczow Pod Lipka (nz)","",50.102915,19.752928,,,0,,,
stop_1218_286402,,"Kleszczow Pod Lipka (nz)","",50.103317,19.752052,,,0,,,
stop_1219_286501,,"Bagry","",50.034081,19.995256,,,0,,,
stop_1220_286701,,"Skawina Pileckiego","",49.978838,19.790569,,,0,,,
stop_1220_286791,,"Skawina Pileckiego","",49.978828,19.79058,,,0,,,
stop_1222_286901,,"Bedkowice Dluga (nz)","",50.163765,19.750342,,,0,,,
stop_1222_286902,,"Bedkowice Dluga (nz)","",50.164271,19.750483,,,0,,,
stop_1223_287103,,"TAURON Arena Krakow Al. Pokoju (nz)","",50.064842,19.989371,,,0,,,
stop_1223_287104,,"TAURON Arena Krakow Al. Pokoju (nz)","",50.064032,19.986984,,,0,,,
stop_1223_287105,,"TAURON Arena Krakow Al. Pokoju (nz)","",50.064168,19.990111,,,0,,,
stop_1224_287201,,"TAURON Arena Krakow","",50.0669,19.988623,,,0,,,
stop_1224_287202,,"TAURON Arena Krakow","",50.068039,19.98875,,,0,,,
stop_1225_287301,,"Plaszowska","",50.044717,19.97709,,,0,,,
stop_1225_287302,,"Plaszowska","",50.04532,19.979036,,,0,,,
stop_1226_287402,,"Strycharska","",50.043364,19.976604,,,0,,,
stop_1227_287501,,"Modlnica Trojadyn Szydlo (nz)","",50.125296,19.884455,,,0,,,
stop_1227_287502,,"Modlnica Trojadyn Szydlo (nz)","",50.125014,19.884991,,,0,,,
stop_1228_287601,,"Giebultow Trojadyn Trafo (nz)","",50.12903,19.880694,,,0,,,
stop_1228_287602,,"Giebultow Trojadyn Trafo (nz)","",50.128724,19.88086,,,0,,,
stop_1229_287701,,"Giebultow Trojadyn (nz)","",50.135681,19.871565,,,0,,,
stop_1229_287702,,"Giebultow Trojadyn (nz)","",50.135784,19.871345,,,0,,,
stop_1230_287801,,"Chopina","",50.067551,19.917338,,,0,,,
stop_1231_287901,,"Czulow Szkola","",50.061088,19.693911,,,0,,,
stop_1231_287902,,"Czulow Szkola","",50.060962,19.694119,,,0,,,
stop_1236_288401,,"Rybna Nowy swiat Gora (nz)","",50.058837,19.654894,,,0,,,
stop_1236_288402,,"Rybna Nowy swiat Gora (nz)","",50.059058,19.655063,,,0,,,
stop_1237_288501,,"Rybna Szkola (nz)","",50.054055,19.651803,,,0,,,
stop_1237_288502,,"Rybna Szkola (nz)","",50.054046,19.651819,,,0,,,
stop_1238_288601,,"Kaszow Wyzral (nz)","",50.015963,19.719062,,,0,,,
stop_1238_288602,,"Kaszow Wyzral (nz)","",50.015508,19.718478,,,0,,,
stop_1239_288701,,"Liszki Wolowska Droga (nz)","",50.031077,19.749426,,,0,,,
stop_1239_288702,,"Liszki Wolowska Droga (nz)","",50.030999,19.749338,,,0,,,
stop_1241_288901,,"Zagacie Witkowki (nz)","",50.004298,19.702317,,,0,,,
stop_1241_288902,,"Zagacie Witkowki (nz)","",50.004242,19.702299,,,0,,,
stop_1242_289001,,"Czernichow Zakamycze (nz)","",49.99325,19.666528,,,0,,,
stop_1242_289002,,"Czernichow Zakamycze (nz)","",49.993046,19.666612,,,0,,,
stop_1243_289101,,"Czernichow Ratanice Most (nz)","",49.995276,19.657377,,,0,,,
stop_1243_289102,,"Czernichow Ratanice Most (nz)","",49.995287,19.657387,,,0,,,
stop_1244_289201,,"Czernichow Ratanice (nz)","",49.996988,19.650387,,,0,,,
stop_1244_289202,,"Czernichow Ratanice (nz)","",49.996965,19.650645,,,0,,,
stop_1248_289601,,"Piekary Na Brzegu (nz)","",50.029522,19.806871,,,0,,,
stop_1248_289602,,"Piekary Na Brzegu (nz)","",50.029597,19.807345,,,0,,,
stop_1249_289701,,"Piekary Korea (nz)","",50.029054,19.800955,,,0,,,
stop_1249_289702,,"Piekary Korea (nz)","",50.0291,19.801131,,,0,,,
stop_1250_289801,,"Piekary Borki (nz)","",50.02846,19.786761,,,0,,,
stop_1250_289802,,"Piekary Borki (nz)","",50.028475,19.786679,,,0,,,
stop_1251_289901,,"Liszki Tyniecka (nz)","",50.034625,19.7736,,,0,,,
stop_1251_289902,,"Liszki Tyniecka (nz)","",50.034595,19.773608,,,0,,,
stop_1252_290001,,"Piekary Dol (nz)","",50.031279,19.78074,,,0,,,
stop_1252_290002,,"Piekary Dol (nz)","",50.031274,19.78071,,,0,,,
stop_1254_290201,,"Raczna Boisko (nz)","",50.003521,19.766724,,,0,,,
stop_1254_290202,,"Raczna Boisko (nz)","",50.004182,19.766634,,,0,,,
stop_1254_290203,,"Raczna Boisko (nz)","",50.003866,19.76602,,,0,,,
stop_1255_290301,,"Jeziorzany Rondo (nz)","",49.994118,19.776597,,,0,,,
stop_1255_290302,,"Jeziorzany Rondo (nz)","",49.994077,19.775809,,,0,,,
stop_1255_290303,,"Jeziorzany Rondo (nz)","",49.99408,19.775799,,,0,,,
stop_1256_290401,,"Jeziorzany Petla","",49.987137,19.778555,,,0,,,
stop_1256_290491,,"Jeziorzany Petla","",49.987142,19.778532,,,0,,,
stop_1259_290701,,"Wolowice Pichonowka (nz)","",49.988579,19.712906,,,0,,,
stop_1259_290702,,"Wolowice Pichonowka (nz)","",49.988637,19.713501,,,0,,,
stop_1260_290801,,"Mlynowka SKA (nz)","",50.081204,19.859092,,,0,,,
stop_1260_290802,,"Mlynowka SKA (nz)","",50.081408,19.858322,,,0,,,
stop_1261_290901,,"Godlewskiego","",50.082343,19.853429,,,0,,,
stop_1261_290902,,"Godlewskiego","",50.082389,19.853499,,,0,,,
stop_1262_291001,,"Szczyglice Podkamycze","",50.091454,19.8294,,,0,,,
stop_1262_291002,,"Szczyglice Podkamycze","",50.091766,19.827444,,,0,,,
stop_1263_291101,,"Chrosna Petla","",50.082178,19.709581,,,0,,,
stop_1264_291201,,"Balice Winna Gora (nz)","",50.082556,19.776223,,,0,,,
stop_1264_291202,,"Balice Winna Gora (nz)","",50.082698,19.777501,,,0,,,
stop_1265_291301,,"Burow Centrum","",50.09524,19.769322,,,0,,,
stop_1265_291391,,"Burow Centrum","",50.095255,19.769332,,,0,,,
stop_1267_291501,,"Bolechowice Zielona (nz)","",50.127152,19.80381,,,0,,,
stop_1267_291502,,"Bolechowice Zielona (nz)","",50.127011,19.803698,,,0,,,
stop_1267_291591,,"Bolechowice Zielona (nz)","",50.127198,19.803826,,,0,,,
stop_1267_291592,,"Bolechowice Zielona (nz)","",50.126992,19.803702,,,0,,,
stop_1268_291601,,"Bolechowice Krzewiny (nz)","",50.135142,19.799184,,,0,,,
stop_1268_291602,,"Bolechowice Krzewiny (nz)","",50.135172,19.799153,,,0,,,
stop_1269_291701,,"Bolechowice Drogi (nz)","",50.141791,19.797087,,,0,,,
stop_1269_291702,,"Bolechowice Drogi (nz)","",50.142438,19.796721,,,0,,,
stop_1270_291801,,"Zelkow Splawy (nz)","",50.161185,19.800205,,,0,,,
stop_1270_291802,,"Zelkow Splawy (nz)","",50.161314,19.800315,,,0,,,
stop_1271_292001,,"Bolechowice Zielona Mala (nz)","",50.13189,19.792089,,,0,,,
stop_1271_292002,,"Bolechowice Zielona Mala (nz)","",50.132098,19.79154,,,0,,,
stop_1272_292101,,"Wieckowice Lipka (nz)","",50.133681,19.77902,,,0,,,
stop_1272_292102,,"Wieckowice Lipka (nz)","",50.133983,19.777676,,,0,,,
stop_1273_292201,,"Dubie Skrzyzowanie (nz)","",50.144341,19.693465,,,0,,,
stop_1273_292202,,"Dubie Skrzyzowanie (nz)","",50.145436,19.693416,,,0,,,
stop_1274_292401,,"Rudawa Stadion (nz)","",50.114474,19.711413,,,0,,,
stop_1274_292491,,"Rudawa Stadion (nz)","",50.114465,19.711421,,,0,,,
stop_1275_292501,,"Libertow Droga do Sidziny (nz)","",49.97163,19.876291,,,0,,,
stop_1275_292502,,"Libertow Droga do Sidziny (nz)","",49.971535,19.876408,,,0,,,
stop_1278_292801,,"Krzecin Petla","",49.953096,19.729698,,,0,,,
stop_1279_292901,,"Skawina Ogrody (nz)","",49.968779,19.84349,,,0,,,
stop_1279_292902,,"Skawina Ogrody (nz)","",49.968278,19.844121,,,0,,,
stop_1280_293001,,"Skawina Kopernika (nz)","",49.966115,19.850353,,,0,,,
stop_1280_293002,,"Skawina Kopernika (nz)","",49.966148,19.850117,,,0,,,
stop_1281_293101,,"Kopanka Petla","",49.977219,19.763134,,,0,,,
stop_1282_293201,,"Kopanka Druga (nz)","",49.979898,19.774146,,,0,,,
stop_1282_293202,,"Kopanka Druga (nz)","",49.980281,19.774891,,,0,,,
stop_1283_293501,,"Lusina Zielona","",49.953583,19.933598,,,0,,,
stop_1283_293502,,"Lusina Zielona","",49.95371,19.93344,,,0,,,
stop_1284_293601,,"Lusina Dobrzyczany (nz)","",49.959161,19.929241,,,0,,,
stop_1284_293602,,"Lusina Dobrzyczany (nz)","",49.959013,19.929213,,,0,,,
stop_1285_293701,,"Lusina Krasnik (nz)","",49.963948,19.934964,,,0,,,
stop_1285_293702,,"Lusina Krasnik (nz)","",49.963912,19.935076,,,0,,,
stop_1286_293801,,"Lusina Zagrody (nz)","",49.969256,19.936092,,,0,,,
stop_1286_293802,,"Lusina Zagrody (nz)","",49.969211,19.936277,,,0,,,
stop_1287_293901,,"Rzeszotary Panciawa Petla","",49.934878,19.99935,,,0,,,
stop_1288_294001,,"Rzeszotary Panciawa (nz)","",49.932124,19.993424,,,0,,,
stop_1288_294002,,"Rzeszotary Panciawa (nz)","",49.932261,19.994409,,,0,,,
stop_1292_294401,,"Wrzasowice Zielona (nz)","",49.942401,19.943468,,,0,,,
stop_1292_294402,,"Wrzasowice Zielona (nz)","",49.942972,19.944056,,,0,,,
stop_1293_294501,,"Wrzasowice Wrzosowa (nz)","",49.963391,19.945943,,,0,,,
stop_1293_294502,,"Wrzasowice Wrzosowa (nz)","",49.963673,19.945822,,,0,,,
stop_1294_294601,,"Wrzasowice Centrum","",49.959912,19.944002,,,0,,,
stop_1294_294602,,"Wrzasowice Centrum","",49.960117,19.944259,,,0,,,
stop_1295_294701,,"Wrzasowice Pileckiego (nz)","",49.957331,19.946316,,,0,,,
stop_1295_294702,,"Wrzasowice Pileckiego (nz)","",49.957468,19.946124,,,0,,,
stop_1298_295001,,"Wrzasowice Nad Wilga","",49.967768,19.952374,,,0,,,
stop_1298_295002,,"Wrzasowice Nad Wilga","",49.967281,19.953435,,,0,,,
stop_1299_295101,,"Ochojno Dabrowki","",49.959383,19.963355,,,0,,,
stop_1299_295102,,"Ochojno Dabrowki","",49.95941,19.963406,,,0,,,
stop_1300_295201,,"Wrzasowice Pod Skala (nz)","",49.961398,19.954367,,,0,,,
stop_1300_295202,,"Wrzasowice Pod Skala (nz)","",49.961801,19.954239,,,0,,,
stop_1301_295301,,"Mogilany Kopce (nz)","",49.944198,19.869234,,,0,,,
stop_1301_295302,,"Mogilany Kopce (nz)","",49.944206,19.869554,,,0,,,
stop_1304_295901,,"Batowice Splawy (nz)","",50.109552,20.008518,,,0,,,
stop_1304_295902,,"Batowice Splawy (nz)","",50.109569,20.008516,,,0,,,
stop_1305_296001,,"Bibice Kosciuszki","",50.121383,19.958812,,,0,,,
stop_1305_296002,,"Bibice Kosciuszki","",50.121435,19.958639,,,0,,,
stop_1306_296101,,"Bibice Rynek","",50.12694,19.953054,,,0,,,
stop_1306_296102,,"Bibice Rynek","",50.1264,19.9538,,,0,,,
stop_1307_296201,,"Batowice Dlubnia","",50.113649,20.021786,,,0,,,
stop_1307_296202,,"Batowice Dlubnia","",50.113978,20.022753,,,0,,,
stop_1308_296301,,"Michalowice Gosciniec (nz)","",50.173654,19.942795,,,0,,,
stop_1308_296302,,"Michalowice Gosciniec (nz)","",50.173835,19.944468,,,0,,,
stop_1308_296303,,"Michalowice Gosciniec (nz)","",50.17372,19.942982,,,0,,,
stop_1308_296304,,"Michalowice Gosciniec (nz)","",50.173654,19.942795,,,0,,,
stop_1309_296401,,"Michalowice Gorna (nz)","",50.168412,19.951727,,,0,,,
stop_1309_296402,,"Michalowice Gorna (nz)","",50.168511,19.950578,,,0,,,
stop_1310_296501,,"Michalowice Michalowka (nz)","",50.170202,19.94043,,,0,,,
stop_1310_296502,,"Michalowice Michalowka (nz)","",50.170162,19.940392,,,0,,,
stop_1311_296601,,"Narama Remiza","",50.1807,19.9326,,,0,,,
stop_1312_296701,,"Michalowice Brzozowa (nz)","",50.149896,19.957658,,,0,,,
stop_1312_296702,,"Michalowice Brzozowa (nz)","",50.150134,19.957115,,,0,,,
stop_1313_296801,,"Owczary Petla","",50.1742,19.9132,,,0,,,
stop_1315_297001,,"Korzkiew Botoja (nz)","",50.1556,19.8834,,,0,,,
stop_1315_297002,,"Korzkiew Botoja (nz)","",50.1556,19.8834,,,0,,,
stop_1316_297101,,"Korzkiew Zamek (nz)","",50.1617,19.8811,,,0,,,
stop_1316_297102,,"Korzkiew Zamek (nz)","",50.1617,19.8811,,,0,,,
stop_1317_297201,,"Smardzowice Wolowka (nz)","",50.1867,19.8546,,,0,,,
stop_1317_297202,,"Smardzowice Wolowka (nz)","",50.1867,19.8546,,,0,,,
stop_1322_297701,,"Trojanowice Krakowska (nz)","",50.1373,19.913,,,0,,,
stop_1322_297702,,"Trojanowice Krakowska (nz)","",50.1373,19.913,,,0,,,
stop_1323_297801,,"Zielonki Marszowiec Petla","",50.1236,19.9398,,,0,,,
stop_1323_297891,,"Zielonki Marszowiec Petla","",50.123507,19.939783,,,0,,,
stop_1326_298101,,"Maslomiaca Staw (nz)","",50.160699,19.999452,,,0,,,
stop_1326_298102,,"Maslomiaca Staw (nz)","",50.160765,19.998736,,,0,,,
stop_1329_298401,,"Pielgrzymowice Petla","",50.1472,20.0483,,,0,,,
stop_1331_298601,,"Pielgrzymowice Granica (nz)","",50.1535,20.0395,,,0,,,
stop_1331_298602,,"Pielgrzymowice Granica (nz)","",50.1535,20.0395,,,0,,,
stop_1332_298701,,"Wieclawice Stare Wysylek (nz)","",50.154336,20.033678,,,0,,,
stop_1332_298702,,"Wieclawice Stare Wysylek (nz)","",50.154304,20.0341,,,0,,,
stop_1333_298801,,"Raciborowice Granica (nz)","",50.118606,20.040691,,,0,,,
stop_1333_298802,,"Raciborowice Granica (nz)","",50.118544,20.040392,,,0,,,
stop_1334_298901,,"Cmentarz Grebalow Poludnie (nz)","",50.090116,20.063086,,,0,,,
stop_1334_298902,,"Cmentarz Grebalow Poludnie (nz)","",50.090209,20.064277,,,0,,,
stop_1335_299101,,"Hala Sportowa Piaski Wielkie (nz)","",50.002791,19.986255,,,0,,,
stop_1335_299102,,"Hala Sportowa Piaski Wielkie (nz)","",50.002863,19.986048,,,0,,,
stop_1337_299301,,"Gnieznienska (nz)","",50.083517,19.905993,,,0,,,
stop_1339_299601,,"Gleboka Kolonia (nz)","",50.132309,20.144535,,,0,,,
stop_1339_299602,,"Gleboka Kolonia (nz)","",50.132196,20.144506,,,0,,,
stop_1340_299701,,"Wysiolek Luborzycki Skrzyzowanie (nz)","",50.151812,20.105133,,,0,,,
stop_1340_299702,,"Wysiolek Luborzycki Skrzyzowanie (nz)","",50.150919,20.106443,,,0,,,
stop_1340_299703,,"Wysiolek Luborzycki Skrzyzowanie (nz)","",50.152199,20.106071,,,0,,,
stop_1341_299801,,"Wysiolek Luborzycki (nz)","",50.158902,20.10383,,,0,,,
stop_1341_299802,,"Wysiolek Luborzycki (nz)","",50.158008,20.104194,,,0,,,
stop_1342_299901,,"Wysiolek Luborzycki Kapkazy (nz)","",50.154828,20.099832,,,0,,,
stop_1342_299902,,"Wysiolek Luborzycki Kapkazy (nz)","",50.154622,20.099967,,,0,,,
stop_1343_300001,,"Kocmyrzow Rondo","",50.133736,20.11417,,,0,,,
stop_1343_300002,,"Kocmyrzow Rondo","",50.133499,20.114379,,,0,,,
stop_1344_300101,,"Kocmyrzow Biblioteka","",50.130026,20.130392,,,0,,,
stop_1344_300102,,"Kocmyrzow Biblioteka","",50.130326,20.130141,,,0,,,
stop_1345_300201,,"Luborzyca Szkola","",50.143936,20.108424,,,0,,,
stop_1345_300202,,"Luborzyca Szkola","",50.143373,20.108563,,,0,,,
stop_1346_300301,,"Marszowice Centrum (nz)","",50.180875,20.093418,,,0,,,
stop_1346_300302,,"Marszowice Centrum (nz)","",50.180556,20.093472,,,0,,,
stop_1347_300401,,"Marszowice (nz)","",50.187958,20.092572,,,0,,,
stop_1347_300402,,"Marszowice (nz)","",50.187986,20.092545,,,0,,,
stop_1348_300501,,"Kocmyrzow Sodfiny (nz)","",50.129894,20.137009,,,0,,,
stop_1348_300502,,"Kocmyrzow Sodfiny (nz)","",50.130134,20.137457,,,0,,,
stop_1349_300601,,"Wieliczka Os.Asnyka","",49.982504,20.069672,,,0,,,
stop_1349_300602,,"Wieliczka Os.Asnyka","",49.982811,20.069917,,,0,,,
stop_1350_300701,,"Bedkowice Cmentarz (nz)","",50.171778,19.74951,,,0,,,
stop_1351_300801,,"Skawina Energetykow Przejazd PKP (nz)","",49.974167,19.808821,,,0,,,
stop_1351_300802,,"Skawina Energetykow Przejazd PKP (nz)","",49.974598,19.808908,,,0,,,
stop_1352_300901,,"Rzepakowa (nz)","",50.061261,20.153598,,,0,,,
stop_1352_300902,,"Rzepakowa (nz)","",50.061117,20.153697,,,0,,,
stop_1353_301001,,"Prawochenskiego (nz)","",50.065344,20.152894,,,0,,,
stop_1353_301002,,"Prawochenskiego (nz)","",50.065422,20.152968,,,0,,,
stop_1355_301201,,"Balice Medweckiego (nz)","",50.069319,19.801773,,,0,,,
stop_1355_301202,,"Balice Medweckiego (nz)","",50.068165,19.800965,,,0,,,
stop_1356_301301,,"Balice Olszanica Bory","",50.063009,19.803979,,,0,,,
stop_1356_301302,,"Balice Olszanica Bory","",50.061633,19.803947,,,0,,,
stop_1357_303202,,"Stary Kleparz","",50.066232,19.938115,,,0,,,
stop_1357_303203,,"Stary Kleparz","",50.066639,19.938861,,,0,,,
stop_1357_303204,,"Stary Kleparz","",50.066271,19.940218,,,0,,,
stop_1358_303401,,"Cmentarz Olszanica (nz)","",50.067634,19.824398,,,0,,,
stop_1358_303402,,"Cmentarz Olszanica (nz)","",50.067547,19.823694,,,0,,,
stop_1358_303403,,"Cmentarz Olszanica (nz)","",50.067654,19.823949,,,0,,,
stop_1359_303501,,"Pielegniarek","",50.08354,19.936884,,,0,,,
stop_1360_303603,,"Szpital Narutowicza","",50.080968,19.936892,,,0,,,
stop_1360_303604,,"Szpital Narutowicza","",50.080797,19.937,,,0,,,
stop_1361_303703,,"Cienista","",50.08551,20.039182,,,0,,,
stop_1361_303704,,"Cienista","",50.085628,20.038767,,,0,,,
stop_1362_303802,,"Czerwone Maki P+R","",50.017377,19.888611,,,0,,,
stop_1362_303804,,"Czerwone Maki P+R","",50.018319,19.889193,,,0,,,
stop_1364_304004,,"TAURON Arena Krakow Wieczysta","",50.070944,19.983968,,,0,,,
stop_1364_304005,,"TAURON Arena Krakow Wieczysta","",50.071712,19.983988,,,0,,,
stop_1364_304006,,"TAURON Arena Krakow Wieczysta","",50.071768,19.982917,,,0,,,
stop_1364_304007,,"TAURON Arena Krakow Wieczysta","",50.071134,19.982734,,,0,,,
stop_1365_304103,,"Rondo 308. Dywizjonu","",50.067751,20.004585,,,0,,,
stop_1365_304104,,"Rondo 308. Dywizjonu","",50.069833,20.004408,,,0,,,
stop_1365_304105,,"Rondo 308. Dywizjonu","",50.067186,20.005828,,,0,,,
stop_1365_304106,,"Rondo 308. Dywizjonu","",50.067871,20.007006,,,0,,,
stop_1367_304301,,"Krzysztoforzyce Sklep (nz)","",50.1152,20.1354,,,0,,,
stop_1367_304302,,"Krzysztoforzyce Sklep (nz)","",50.1152,20.1354,,,0,,,
stop_1368_304401,,"Rzaka","",50.006257,20.01116,,,0,,,
stop_1369_304501,,"Szczyglice Autostrada","",50.092966,19.815637,,,0,,,
stop_1369_304502,,"Szczyglice Autostrada","",50.092902,19.815621,,,0,,,
stop_1370_304601,,"Gleboka Zakret (nz)","",50.13089,20.15209,,,0,,,
stop_1370_304602,,"Gleboka Zakret (nz)","",50.13082,20.15218,,,0,,,
stop_1371_304901,,"Brzezie Kosciol (nz)","",50.132455,19.821639,,,0,,,
stop_1371_304902,,"Brzezie Kosciol (nz)","",50.132195,19.821635,,,0,,,
stop_1376_99801,,"Krasnowolskiego (nz)","",50.085306,20.049253,,,0,,,
stop_1376_99802,,"Krasnowolskiego (nz)","",50.085392,20.049102,,,0,,,
stop_1384_305101,,"swiatniki Gorne Piasna Gorka (nz)","",49.931959,19.973829,,,0,,,
stop_1384_305102,,"swiatniki Gorne Piasna Gorka (nz)","",49.931959,19.973829,,,0,,,
stop_1391_305201,,"Konary Pod Sosenka (nz)","",49.93036,19.91748,,,0,,,
stop_1391_305202,,"Konary Pod Sosenka (nz)","",49.93097,19.91786,,,0,,,
stop_1392_305301,,"Wlosan Dzial Wschodni (nz)","",49.91361,19.90302,,,0,,,
stop_1392_305302,,"Wlosan Dzial Wschodni (nz)","",49.91361,19.90302,,,0,,,
stop_1425_305501,,"Cholerzyn Zagorze (nz)","",50.058416,19.753917,,,0,,,
stop_1425_305502,,"Cholerzyn Zagorze (nz)","",50.058316,19.754596,,,0,,,
stop_1426_305601,,"Cholerzyn Granica (nz)","",50.059819,19.742588,,,0,,,
stop_1426_305602,,"Cholerzyn Granica (nz)","",50.059812,19.742194,,,0,,,
stop_1483_292301,,"Krzeszowice Krakowska Muzeum (nz)","",50.13458,19.63803,,,0,,,
stop_1497_306001,,"Murownia Petla","",50.18109,19.81188,,,0,,,
stop_1527_306601,,"luczanowicka (nz)","",50.10018,20.09559,,,0,,,
stop_1527_306602,,"luczanowicka (nz)","",50.10212,20.09899,,,0,,,
stop_1531_306301,,"Kozienicka","",50.006092,19.858722,,,0,,,
stop_1532_306401,,"Orszy-Broniewskiego","",50.00651,19.86384,,,0,,,
stop_1532_306402,,"Orszy-Broniewskiego","",50.005744,19.864649,,,0,,,
stop_1534_306801,,"Obserwatorium (nz)","",50.05345,19.82694,,,0,,,
stop_1534_306802,,"Obserwatorium (nz)","",50.0534,19.82683,,,0,,,
stop_1535_306901,,"lobzow SKA","",50.081627,19.916301,,,0,,,
stop_1535_306902,,"lobzow SKA","",50.081571,19.916194,,,0,,,
stop_1535_306903,,"lobzow SKA","",50.0824,19.91498,,,0,,,
stop_1535_306904,,"lobzow SKA","",50.08236,19.91629,,,0,,,
stop_1536_307001,,"Petrazyckiego Osiedle (nz)","",49.984311,19.896333,,,0,,,
stop_1536_307002,,"Petrazyckiego Osiedle (nz)","",49.984291,19.895366,,,0,,,
stop_1537_307101,,"Libertowska (nz)","",49.983572,19.889759,,,0,,,
stop_1537_307102,,"Libertowska (nz)","",49.983692,19.890051,,,0,,,
stop_1540_307401,,"Kluszynska","",49.987316,19.913242,,,0,,,
stop_1540_307402,,"Kluszynska","",49.98748,19.913891,,,0,,,
stop_1541_307501,,"Radziszow Szpital","",49.906686,19.834016,,,0,,,
stop_1541_307502,,"Radziszow Szpital","",49.90659,19.83394,,,0,,,
stop_1542_307302,,"Chelmonskiego Osiedle","",50.091647,19.902569,,,0,,,
stop_1563_310201,,"Bielany Obwodnica (nz)","",50.04331,19.80823,,,0,,,
stop_1563_310202,,"Bielany Obwodnica (nz)","",50.04183,19.81185,,,0,,,
stop_1564_310301,,"Rybna Droga do Sanki (nz)","",50.065018,19.658911,,,0,,,
stop_1564_310302,,"Rybna Droga do Sanki (nz)","",50.064734,19.658732,,,0,,,
stop_1613_46071,,"Mrozowa (nz)","",50.08405,20.07177,,,0,,,
stop_1613_46072,,"Mrozowa (nz)","",50.083994,20.071851,,,0,,,
stop_1614_46172,,"Blokowa (nz)","",50.085398,20.074793,,,0,,,
stop_1614_46173,,"Blokowa (nz)","",50.08518,20.07429,,,0,,,
stop_1615_46272,,"Agencja Krakow Wschod (nz)","",50.08768,20.07948,,,0,,,
stop_1616_46372,,"Walcownia","",50.08969,20.08377,,,0,,,
stop_1617_307201,,"Chelmonskiego Petla","",50.09356,19.89739,,,0,,,
stop_1617_307202,,"Chelmonskiego Petla","",50.09356,19.89739,,,0,,,
stop_1623_310801,,"Cmentarz Bronowice (nz)","",50.095634,19.873164,,,0,,,
stop_1623_310802,,"Cmentarz Bronowice (nz)","",50.095027,19.873801,,,0,,,
stop_1624_310901,,"Mehoffera","",50.089578,19.912584,,,0,,,
stop_1624_310902,,"Mehoffera","",50.089339,19.913772,,,0,,,
stop_1625_311001,,"Wladyslawa lokietka","",50.086301,19.922864,,,0,,,
stop_1625_311002,,"Wladyslawa lokietka","",50.085588,19.923114,,,0,,,
stop_1626_311101,,"AGH / UR","",50.064389,19.924345,,,0,,,
stop_1626_311102,,"AGH / UR","",50.062664,19.923186,,,0,,,
stop_1628_311301,,"Dobrego Pasterza","",50.088922,19.958399,,,0,,,
stop_1628_311302,,"Dobrego Pasterza","",50.088646,19.959023,,,0,,,
stop_1628_311303,,"Dobrego Pasterza","",50.089799,19.958639,,,0,,,
stop_1628_311304,,"Dobrego Pasterza","",50.089644,19.958302,,,0,,,
stop_1629_311401,,"Os. Akademickie PK","",50.087671,19.994226,,,0,,,
stop_1629_311402,,"Os. Akademickie PK","",50.087261,19.995057,,,0,,,
stop_1630_311501,,"Wodociagowa (nz)","",50.048102,19.896685,,,0,,,
stop_1630_311502,,"Wodociagowa (nz)","",50.048081,19.897211,,,0,,,
stop_1631_311601,,"Fatimska (nz)","",50.093191,20.029146,,,0,,,
stop_1631_311602,,"Fatimska (nz)","",50.093381,20.027205,,,0,,,
stop_1632_311701,,"Dabrowskiej","",50.07812,20.01489,,,0,,,
stop_1632_311702,,"Dabrowskiej","",50.078147,20.014391,,,0,,,
stop_1633_311801,,"Wladyslawa Jagielly","",50.095021,20.04012,,,0,,,
stop_1633_311802,,"Wladyslawa Jagielly","",50.09551,20.041551,,,0,,,
stop_1634_311901,,"Morcinka (nz)","",50.103689,20.072035,,,0,,,
stop_1634_311902,,"Morcinka (nz)","",50.104442,20.072958,,,0,,,
stop_1634_311903,,"Morcinka (nz)","",50.104084,20.071981,,,0,,,
stop_1634_311904,,"Morcinka (nz)","",50.104108,20.071214,,,0,,,
stop_1635_312001,,"Cmentarz Ruszcza (nz)","",50.084953,20.149873,,,0,,,
stop_1635_312002,,"Cmentarz Ruszcza (nz)","",50.084928,20.149796,,,0,,,
stop_1635_312091,,"Cmentarz Ruszcza (nz)","",50.084953,20.149873,,,0,,,
stop_1635_312092,,"Cmentarz Ruszcza (nz)","",50.084928,20.149796,,,0,,,
stop_1636_312101,,"Bazarowa","",50.034377,20.042184,,,0,,,
stop_1636_312102,,"Bazarowa","",50.033836,20.042302,,,0,,,
stop_1637_312201,,"Danalowka (nz)","",50.027719,20.039186,,,0,,,
stop_1637_312202,,"Danalowka (nz)","",50.028416,20.039447,,,0,,,
stop_1638_312301,,"Magazynowa (nz)","",50.024973,20.038152,,,0,,,
stop_1638_312302,,"Magazynowa (nz)","",50.02552,20.038379,,,0,,,
stop_1639_312401,,"Pollanki","",50.03867,20.04183,,,0,,,
stop_1639_312402,,"Pollanki","",50.039172,20.04319,,,0,,,
stop_1639_312403,,"Pollanki","",50.038,20.042403,,,0,,,
stop_1639_312404,,"Pollanki","",50.03824,20.0434,,,0,,,
stop_1640_312501,,"Duza Gora (nz)","",50.018191,20.027484,,,0,,,
stop_1640_312502,,"Duza Gora (nz)","",50.01802,20.028345,,,0,,,
stop_1641_312601,,"Cmentarz Biezanow","",50.010048,20.023043,,,0,,,
stop_1641_312602,,"Cmentarz Biezanow","",50.011517,20.024465,,,0,,,
stop_1642_312701,,"Wezel Wielicki (nz)","",50.00589,20.015805,,,0,,,
stop_1642_312702,,"Wezel Wielicki (nz)","",50.006748,20.017758,,,0,,,
stop_1642_312703,,"Wezel Wielicki (nz)","",50.006044,20.017022,,,0,,,
stop_1642_312704,,"Wezel Wielicki (nz)","",50.00579,20.018251,,,0,,,
stop_1642_312705,,"Wezel Wielicki (nz)","",50.006833,20.016536,,,0,,,
stop_1643_312801,,"Sawiczewskich","",49.98997,19.946263,,,0,,,
stop_1643_312803,,"Sawiczewskich","",49.99125,19.94609,,,0,,,
stop_1644_312901,,"Swoszowice Szkola","",49.994347,19.945991,,,0,,,
stop_1644_312902,,"Swoszowice Szkola","",49.994069,19.946716,,,0,,,
stop_1645_313001,,"Merkuriusza Polskiego","",49.992715,19.940179,,,0,,,
stop_1645_313002,,"Merkuriusza Polskiego","",49.993051,19.938941,,,0,,,
stop_1646_313101,,"Warszewicza (nz)","",49.997806,19.945964,,,0,,,
stop_1646_313102,,"Warszewicza (nz)","",49.998824,19.945826,,,0,,,
stop_1647_313301,,"Cmentarz Wroblowice","",49.979835,19.954778,,,0,,,
stop_1647_313302,,"Cmentarz Wroblowice","",49.979817,19.955006,,,0,,,
stop_1648_313601,,"Kurzei","",50.095188,19.988821,,,0,,,
stop_1648_313602,,"Kurzei","",50.0952,19.990002,,,0,,,
stop_1649_313701,,"Cmentarz Bielany (nz)","",50.04771,19.82634,,,0,,,
stop_1649_313702,,"Cmentarz Bielany (nz)","",50.04771,19.82641,,,0,,,
stop_1650_313801,,"Sloneckiego","",50.089497,19.976632,,,0,,,
stop_1651_313901,,"Cmentarz Borek Falecki (nz)","",50.008741,19.915009,,,0,,,
stop_1651_313902,,"Cmentarz Borek Falecki (nz)","",50.009543,19.913625,,,0,,,
stop_1653_314001,,"UR Aleja 29 Listopada","",50.08225,19.951665,,,0,,,
stop_1653_314002,,"UR Aleja 29 Listopada","",50.083374,19.952734,,,0,,,
stop_1653_314003,,"UR Aleja 29 Listopada","",50.082415,19.952196,,,0,,,
stop_1654_314103,,"Muzeum Narodowe","",50.059462,19.925931,,,0,,,
stop_1654_314104,,"Muzeum Narodowe","",50.059861,19.925035,,,0,,,
stop_1654_314105,,"Muzeum Narodowe","",50.058724,19.925163,,,0,,,
stop_1655_271401,,"Mnikow Panska Gora (nz)","",50.06365,19.72107,,,0,,,
stop_1655_271402,,"Mnikow Panska Gora (nz)","",50.06365,19.72107,,,0,,,
stop_1656_271501,,"Mnikow Skaly","",50.0689,19.70746,,,0,,,
stop_1657_310401,,"Mnikow Zarynnie (nz)","",50.06622,19.71926,,,0,,,
stop_1657_310402,,"Mnikow Zarynnie (nz)","",50.06622,19.71926,,,0,,,
stop_1658_310501,,"Morawica Rudki (nz)","",50.06987,19.74763,,,0,,,
stop_1658_310502,,"Morawica Rudki (nz)","",50.06987,19.74763,,,0,,,
stop_1660_305901,,"Golkowice Kosciol","",49.972629,19.979781,,,0,,,
stop_1660_305902,,"Golkowice Kosciol","",49.972646,19.979438,,,0,,,
stop_1661_314401,,"Golkowice Sklep","",49.972979,19.989172,,,0,,,
stop_1661_314402,,"Golkowice Sklep","",49.973004,19.9888,,,0,,,
stop_1662_314501,,"Grabowki Petla","",49.973761,20.000579,,,0,,,
stop_1663_314601,,"Golkowice Petla","",49.973825,19.967331,,,0,,,
stop_1663_314602,,"Golkowice Petla","",49.973798,19.966666,,,0,,,
stop_1664_314701,,"Zbydniowicka","",49.973521,19.961061,,,0,,,
stop_1664_314702,,"Zbydniowicka","",49.973452,19.960579,,,0,,,
stop_1665_314801,,"Wroblowice","",49.98025,19.94461,,,0,,,
stop_1665_314802,,"Wroblowice","",49.97946,19.94438,,,0,,,
stop_1666_314901,,"Park Zdrojowy","",49.993128,19.934865,,,0,,,
stop_1666_314902,,"Park Zdrojowy","",49.99286,19.936234,,,0,,,
stop_1667_315001,,"Aleksandrowicza (nz)","",49.97964,19.949179,,,0,,,
stop_1667_315002,,"Aleksandrowicza (nz)","",49.979532,19.949798,,,0,,,
stop_1671_313401,,"Krzeslawice Mlyn (nz)","",50.0799,20.057,,,0,,,
stop_1671_313402,,"Krzeslawice Mlyn (nz)","",50.079943,20.056876,,,0,,,
stop_1672_313501,,"PCK","",50.084232,20.054377,,,0,,,
stop_1672_313502,,"PCK","",50.084225,20.054285,,,0,,,
stop_1679_336,,"Agatowa (nz)","",50.021785,20.043124,,,0,,,
stop_1679_338,,"Agatowa (nz)","",50.021904,20.04263,,,0,,,
stop_1685_7201,,"Pedzichow","",50.069678,19.937536,,,0,,,
stop_1685_7202,,"Pedzichow","",50.069556,19.937603,,,0,,,
stop_1731_315802,,"Podgorze SKA","",50.0419,19.9613,,,0,,,
stop_1731_315803,,"Podgorze SKA","",50.041842,19.961095,,,0,,,
stop_1731_315804,,"Podgorze SKA","",50.042447,19.962301,,,0,,,
stop_1731_315805,,"Podgorze SKA","",50.042208,19.963149,,,0,,,
stop_1731_315806,,"Podgorze SKA","",50.041866,19.962555,,,0,,,
stop_1732_317201,,"Taklinskiego (nz)","",49.986662,19.909296,,,0,,,
stop_1732_317202,,"Taklinskiego (nz)","",49.98655,19.9089,,,0,,,
stop_1735_317301,,"Skawina Tyniecka Rzepnik (nz)","",49.991324,19.813601,,,0,,,
stop_1735_317302,,"Skawina Tyniecka Rzepnik (nz)","",49.991024,19.813199,,,0,,,
stop_1747_317403,,"Giedroycia (nz)","",50.06444,20.08138,,,0,,,
stop_1747_317404,,"Giedroycia (nz)","",50.06445,20.08475,,,0,,,
stop_1747_317405,,"Giedroycia (nz)","",50.06412,20.08153,,,0,,,
stop_1748_317502,,"Nowy Biezanow P+R","",50.01526,20.02304,,,0,,,
stop_1748_317503,,"Nowy Biezanow P+R","",50.014968,20.023568,,,0,,,
stop_1748_317592,,"Nowy Biezanow P+R","",50.015022,20.023341,,,0,,,
stop_1749_317602,,"Kurdwanow P+R","",50.013498,19.949706,,,0,,,
stop_1749_317604,,"Kurdwanow P+R","",50.014823,19.950175,,,0,,,
stop_1749_317605,,"Kurdwanow P+R","",50.013689,19.950638,,,0,,,
stop_1750_317701,,"Piaskowa (nz)","",50.0958,19.8969,,,0,,,
stop_1751_317801,,"Giedroycia ZTPO (nz)","",50.05942,20.07922,,,0,,,
stop_1751_317802,,"Giedroycia ZTPO (nz)","",50.05942,20.07922,,,0,,,
stop_1752_317901,,"Zakarnie (nz)","",50.05292,20.0634,,,0,,,
stop_1752_317902,,"Zakarnie (nz)","",50.053142,20.061636,,,0,,,
stop_1753_318001,,"Kepa (nz)","",50.0568,20.068,,,0,,,
stop_1753_318002,,"Kepa (nz)","",50.0568,20.068,,,0,,,
stop_1754_318101,,"Skotniki Kosciol","",50.0088,19.8745,,,0,,,
stop_1755_318201,,"Przegorzaly Obwodnica (nz)","",50.04619,19.87148,,,0,,,
stop_1755_318202,,"Przegorzaly Obwodnica (nz)","",50.04611,19.87293,,,0,,,
stop_1765_318301,,"Biezanow Drozdzownia SKA","",50.011331,20.035681,,,0,,,
stop_1765_318302,,"Biezanow Drozdzownia SKA","",50.011521,20.036798,,,0,,,
stop_1773_318601,,"Grzegorza z Sanoka (nz)","",50.09883,20.09252,,,0,,,
stop_1773_318602,,"Grzegorza z Sanoka (nz)","",50.09826,20.09255,,,0,,,
stop_1774_318701,,"Orlowskiego (nz)","",50.1082,20.1083,,,0,,,
stop_1774_318702,,"Orlowskiego (nz)","",50.1082,20.1083,,,0,,,
stop_1785_319101,,"Petfiego (nz)","",50.094152,20.035397,,,0,,,
stop_1785_319102,,"Petfiego (nz)","",50.094174,20.035502,,,0,,,
stop_1789_319001,,"Jurczaka (nz)","",50.086367,19.986528,,,0,,,
stop_1789_319002,,"Jurczaka (nz)","",50.08676,19.98637,,,0,,,
stop_1801_126901,,"Maciejowice Gora (nz)","",50.137,20.0702,,,0,,,
stop_1801_126902,,"Maciejowice Gora (nz)","",50.1371,20.0699,,,0,,,
stop_1802_315901,,"Maciejowice Petla","",50.1421,20.0723,,,0,,,
stop_1803_316801,,"Maciejowice Skrzyzowanie (nz)","",50.1403,20.0744,,,0,,,
stop_1803_316802,,"Maciejowice Skrzyzowanie (nz)","",50.14,20.0743,,,0,,,
stop_1804_318901,,"Wiktorowice Rozlewnia Wod (nz)","",50.1321,20.0646,,,0,,,
stop_1804_318902,,"Wiktorowice Rozlewnia Wod (nz)","",50.1323,20.0647,,,0,,,
stop_1805_319201,,"Reduta (nz)","",50.09829,19.97477,,,0,,,
stop_1805_319202,,"Reduta (nz)","",50.0993,19.97421,,,0,,,
stop_1806_319301,,"Dziekanowice Batowice SKA","",50.10794,19.99585,,,0,,,
stop_1806_319302,,"Dziekanowice Batowice SKA","",50.10778,19.99633,,,0,,,
stop_1806_319391,,"Dziekanowice Batowice SKA","",50.10778,19.99633,,,0,,,
stop_1806_319392,,"Dziekanowice Batowice SKA","",50.10794,19.99585,,,0,,,
stop_1807_319401,,"Dziekanowicka (nz)","",50.10417,19.99224,,,0,,,
stop_1807_319402,,"Dziekanowicka (nz)","",50.10417,19.99224,,,0,,,
stop_1808_319501,,"Powstancow Magazyny","",50.106166,20.001605,,,0,,,
stop_1808_319502,,"Powstancow Magazyny","",50.1062,20.00143,,,0,,,
stop_1839_316701,,"Tomaszowice Kolberga (nz)","",50.13474,19.8369,,,0,,,
stop_1839_316702,,"Tomaszowice Kolberga (nz)","",50.13474,19.8369,,,0,,,
stop_1840_319801,,"Zelkow Petla","",50.161451,19.811576,,,0,,,
stop_1841_319901,,"Rzaska Szkola","",50.098733,19.838548,,,0,,,
stop_1841_319902,,"Rzaska Szkola","",50.099152,19.836839,,,0,,,
stop_1842_320001,,"Zelkow Kosciuszki (nz)","",50.161536,19.805201,,,0,,,
stop_1842_320002,,"Zelkow Kosciuszki (nz)","",50.161564,19.805619,,,0,,,
stop_1843_320101,,"Brzoskwinia Petla","",50.089917,19.703049,,,0,,,
stop_1843_320191,,"Brzoskwinia Petla","",50.0898,19.70291,,,0,,,
stop_1851_137401,,"sliwiaka (nz)","",50.037947,20.059351,,,0,,,
stop_1851_137402,,"sliwiaka (nz)","",50.03769,20.05873,,,0,,,
stop_1851_137403,,"sliwiaka (nz)","",50.03751,20.05949,,,0,,,
stop_1852_251701,,"sliwiaka Zaklady","",50.03796,20.05341,,,0,,,
stop_1852_251702,,"sliwiaka Zaklady","",50.03825,20.05189,,,0,,,
stop_1853_320301,,"Szpital Jana Pawla II","",50.088931,19.938065,,,0,,,
stop_1853_320302,,"Szpital Jana Pawla II","",50.089,19.938822,,,0,,,
stop_1853_320303,,"Szpital Jana Pawla II","",50.088379,19.93863,,,0,,,
stop_1859_320401,,"Kobylany Kwiatowa","",50.148005,19.761308,,,0,,,
stop_1859_320402,,"Kobylany Kwiatowa","",50.146424,19.762947,,,0,,,
stop_1860_320501,,"Karniowice Petla","",50.152407,19.773923,,,0,,,
stop_1860_320591,,"Karniowice Petla","",50.1525,19.774,,,0,,,
stop_1861_320601,,"Karniowice Gorki (nz)","",50.149377,19.779252,,,0,,,
stop_1861_320602,,"Karniowice Gorki (nz)","",50.149377,19.779252,,,0,,,
stop_1862_320701,,"Kobylany Dworska (nz)","",50.148071,19.753066,,,0,,,
stop_1862_320702,,"Kobylany Dworska (nz)","",50.148118,19.753096,,,0,,,
stop_1863_320801,,"Radwanowice Krzeszowicka (nz)","",50.144468,19.7081,,,0,,,
stop_1863_320802,,"Radwanowice Krzeszowicka (nz)","",50.144472,19.708058,,,0,,,
stop_1864_320901,,"Brzezie Kluczwody (nz)","",50.129303,19.821801,,,0,,,
stop_1864_320902,,"Brzezie Kluczwody (nz)","",50.128172,19.82182,,,0,,,
stop_1864_320991,,"Brzezie Kluczwody (nz)","",50.129278,19.821797,,,0,,,
stop_1864_320992,,"Brzezie Kluczwody (nz)","",50.128172,19.82182,,,0,,,
stop_1865_316501,,"Dziekanowice Dluga (nz)","",50.11285,20.00859,,,0,,,
stop_1865_316502,,"Dziekanowice Dluga (nz)","",50.1125,20.00842,,,0,,,
stop_1866_316601,,"Dziekanowice Kapliczka","",50.11727,20.01224,,,0,,,
stop_1866_316691,,"Dziekanowice Kapliczka","",50.11727,20.01224,,,0,,,
stop_1867_321001,,"Bolen Petla","",50.1288,19.9831,,,0,,,
stop_1868_321101,,"Bosutow Remiza","",50.1233,19.9942,,,0,,,
stop_1868_321102,,"Bosutow Remiza","",50.1233,19.9942,,,0,,,
stop_1871_93101,,"Herberta (nz)","",50.010398,19.944239,,,0,,,
stop_1871_93170,,"Herberta (nz)","",50.01002,19.94472,,,0,,,
stop_1885_321271,,"Wrzasowice Rondo","",49.971316,19.946745,,,0,,,
stop_1885_321273,,"Wrzasowice Rondo","",49.97114,19.94722,,,0,,,
stop_1890_322501,,"sciejowice Remiza (nz)","",50.006158,19.778876,,,0,,,
stop_1890_322502,,"sciejowice Remiza (nz)","",50.00584,19.778988,,,0,,,
stop_1891_322601,,"sciejowice Kosciel (nz)","",49.998825,19.779722,,,0,,,
stop_1891_322602,,"sciejowice Kosciel (nz)","",49.998918,19.779798,,,0,,,
stop_1892_322701,,"Wolowice Grotowa Skrzyzowanie (nz)","",49.984604,19.754657,,,0,,,
stop_1892_322702,,"Wolowice Grotowa Skrzyzowanie (nz)","",49.984537,19.75466,,,0,,,
stop_1893_322801,,"Jeziorzany Gorskie Domy (nz)","",49.981598,19.766711,,,0,,,
stop_1893_322802,,"Jeziorzany Gorskie Domy (nz)","",49.981608,19.766658,,,0,,,
stop_1894_322901,,"Wolowice Zawierzbie (nz)","",49.981731,19.744993,,,0,,,
stop_1894_322902,,"Wolowice Zawierzbie (nz)","",49.981716,19.745024,,,0,,,
stop_1895_323001,,"Krzysztoforzyce Petla","",50.1158,20.1384,,,0,,,
stop_1896_323101,,"Wolowice Grotowa (nz)","",49.98369,19.759121,,,0,,,
stop_1896_323102,,"Wolowice Grotowa (nz)","",49.983749,19.758957,,,0,,,
stop_1897_323201,,"Mnikow Granica (nz)","",50.06459,19.73794,,,0,,,
stop_1897_323202,,"Mnikow Granica (nz)","",50.06459,19.73794,,,0,,,
stop_1901_323301,,"Radziszow Podlesie Las (nz)","",49.91156,19.82228,,,0,,,
stop_1901_323302,,"Radziszow Podlesie Las (nz)","",49.91156,19.82215,,,0,,,
stop_1905_323401,,"Jedrzejczyka (nz)","",50.01483,20.04207,,,0,,,
stop_1906_323501,,"Wieliczka Stacja Paliw","",49.993019,20.043029,,,0,,,
stop_1906_323502,,"Wieliczka Stacja Paliw","",49.99339,20.0424,,,0,,,
stop_1919_13303,,"Wesele","",50.079369,19.896898,,,0,,,
stop_1919_13304,,"Wesele","",50.078873,19.897879,,,0,,,
stop_1921_324201,,"Teatr Slowackiego","",50.064609,19.945519,,,0,,,
stop_1921_324202,,"Teatr Slowackiego","",50.064792,19.944409,,,0,,,
stop_1921_324203,,"Teatr Slowackiego","",50.064135,19.945068,,,0,,,
stop_1925_321601,,"Lednica Gorna Choragwica (nz)","",49.97828,20.08677,,,0,,,
stop_1925_321602,,"Lednica Gorna Choragwica (nz)","",49.97852,20.08582,,,0,,,
stop_1926_321701,,"Lednica Gorna (nz)","",49.97723,20.09222,,,0,,,
stop_1926_321702,,"Lednica Gorna (nz)","",49.97737,20.09176,,,0,,,
stop_1927_321801,,"Tomaszkowice","",49.97585,20.09918,,,0,,,
stop_1927_321802,,"Tomaszkowice","",49.97612,20.0983,,,0,,,
stop_1928_321901,,"Przebieczany","",49.97409,20.10832,,,0,,,
stop_1928_321902,,"Przebieczany","",49.97335,20.11136,,,0,,,
stop_1929_322001,,"Biskupice I (nz)","",49.97248,20.12388,,,0,,,
stop_1929_322002,,"Biskupice I (nz)","",49.97267,20.12265,,,0,,,
stop_1930_322101,,"Biskupice II (nz)","",49.96929,20.13244,,,0,,,
stop_1930_322102,,"Biskupice II (nz)","",49.96888,20.1332,,,0,,,
stop_1931_322201,,"Trabki I (nz)","",49.9634,20.14179,,,0,,,
stop_1931_322202,,"Trabki I (nz)","",49.96316,20.14224,,,0,,,
stop_1932_322301,,"Trabki OSP","",49.95798,20.14657,,,0,,,
stop_1932_322302,,"Trabki OSP","",49.95868,20.14586,,,0,,,
stop_1933_324501,,"Trabki P+R","",49.95731,20.14707,,,0,,,
stop_1934_324601,,"Wieliczka Gdowska","",49.98154,20.07041,,,0,,,
stop_1935_324701,,"Wieliczka Polna (nz)","",49.98,20.07795,,,0,,,
stop_1935_324702,,"Wieliczka Polna (nz)","",49.98019,20.07758,,,0,,,
stop_1938_324901,,"Zabierzow Rynek","",50.116503,19.799886,,,0,,,
stop_1938_324902,,"Zabierzow Rynek","",50.116952,19.800051,,,0,,,
stop_1939_325001,,"Krzeszowice Dworzec Autobusowy","",50.1315,19.6371,,,0,,,
stop_1940_325101,,"Modlniczka Leroy Merlin (nz)","",50.106416,19.849579,,,0,,,
stop_1940_325102,,"Modlniczka Leroy Merlin (nz)","",50.106043,19.850759,,,0,,,
stop_1943_324801,,"Zabierzow Eximius Park","",50.106731,19.824076,,,0,,,
stop_1943_324802,,"Zabierzow Eximius Park","",50.106657,19.824111,,,0,,,
stop_1988_327001,,"Wegrzce Wielkie Petla","",50.0149,20.1152,,,0,,,
stop_1992_327101,,"Brzozowka Oskarowka","",50.1755,19.8964,,,0,,,
stop_1992_327102,,"Brzozowka Oskarowka","",50.1755,19.8964,,,0,,,
stop_1993_327201,,"Brzozowka Osrodek","",50.172,19.8982,,,0,,,
stop_1993_327202,,"Brzozowka Osrodek","",50.172,19.8982,,,0,,,
stop_1996_327601,,"Splawy","",50.093565,20.146843,,,0,,,
stop_1996_327602,,"Splawy","",50.093499,20.146913,,,0,,,
stop_1997_327701,,"Wegrzynowicka (nz)","",50.09942,20.14814,,,0,,,
stop_1997_327702,,"Wegrzynowicka (nz)","",50.09942,20.14814,,,0,,,
stop_2010_327801,,"Niebyla (nz)","",50.102313,20.061026,,,0,,,
stop_2010_327802,,"Niebyla (nz)","",50.102231,20.061276,,,0,,,
stop_2012_327901,,"Kamien Szkola","",50.014971,19.586742,,,0,,,
stop_2048_328001,,"Czulice Przymiarki (nz)","",50.1225,20.1873,,,0,,,
stop_2048_328002,,"Czulice Przymiarki (nz)","",50.1225,20.1873,,,0,,,
stop_2049_328101,,"Gleboka Staw","",50.133221,20.149281,,,0,,,
stop_2049_328102,,"Gleboka Staw","",50.133118,20.149282,,,0,,,
stop_2050_328201,,"Karniow Szkola","",50.1315,20.1711,,,0,,,
stop_2050_328202,,"Karniow Szkola","",50.1315,20.1711,,,0,,,
stop_2051_328301,,"Czulice Kosciol","",50.127,20.188,,,0,,,
stop_2052_328401,,"Wola Luborzycka Skrzyzowanie (nz)","",50.159623,20.116692,,,0,,,
stop_2052_328402,,"Wola Luborzycka Skrzyzowanie (nz)","",50.160375,20.117066,,,0,,,
stop_2053_328501,,"lososkowice Remiza","",50.1877,20.1602,,,0,,,
stop_2054_328601,,"Skrzeszowice OSP Boisko","",50.188586,20.144372,,,0,,,
stop_2054_328602,,"Skrzeszowice OSP Boisko","",50.188735,20.144866,,,0,,,
stop_2055_328701,,"luczyce Kosynierow","",50.1606,20.084,,,0,,,
stop_2055_328702,,"luczyce Kosynierow","",50.160562,20.083927,,,0,,,
stop_2056_328801,,"Polanowice Boisko (nz)","",50.198209,20.09149,,,0,,,
stop_2056_328802,,"Polanowice Boisko (nz)","",50.197877,20.091262,,,0,,,
stop_2057_328901,,"Goszcza Dworek","",50.1868,20.0699,,,0,,,
stop_2057_328991,,"Goszcza Dworek","",50.1868,20.0699,,,0,,,
stop_2058_329001,,"Sadowie Wiadukt (nz)","",50.176118,20.066696,,,0,,,
stop_2058_329002,,"Sadowie Wiadukt (nz)","",50.176611,20.066335,,,0,,,
stop_2059_329101,,"Goszyce Pod Lasem (nz)","",50.171507,20.1253,,,0,,,
stop_2059_329102,,"Goszyce Pod Lasem (nz)","",50.171059,20.124955,,,0,,,
stop_2060_329201,,"Kocmyrzow-Luborzyca Urzad Gminy","",50.13572,20.11361,,,0,,,
stop_2060_329202,,"Kocmyrzow-Luborzyca Urzad Gminy","",50.135077,20.113209,,,0,,,
stop_2063_329401,,"Czulow Sklep (nz)","",50.05968,19.703414,,,0,,,
stop_2063_329402,,"Czulow Sklep (nz)","",50.05967,19.703711,,,0,,,
stop_2064_329501,,"Czulow Granica (nz)","",50.05946,19.711639,,,0,,,
stop_2064_329502,,"Czulow Granica (nz)","",50.059451,19.712055,,,0,,,
stop_2065_329601,,"Mnikow Remiza (nz)","",50.059934,19.722214,,,0,,,
stop_2065_329602,,"Mnikow Remiza (nz)","",50.059884,19.721926,,,0,,,
stop_2066_329701,,"Mnikow Sklep (nz)","",50.059858,19.727815,,,0,,,
stop_2066_329702,,"Mnikow Sklep (nz)","",50.059849,19.728604,,,0,,,
stop_2066_329703,,"Mnikow Sklep (nz)","",50.060051,19.727003,,,0,,,
stop_2066_329704,,"Mnikow Sklep (nz)","",50.05989,19.72671,,,0,,,
stop_2067_329801,,"Cholerzyn Skwer (nz)","",50.058502,19.774436,,,0,,,
stop_2067_329802,,"Cholerzyn Skwer (nz)","",50.058288,19.775441,,,0,,,
stop_2068_329901,,"Rybna Kosciol","",50.04938,19.647039,,,0,,,
stop_2068_329902,,"Rybna Kosciol","",50.049384,19.646892,,,0,,,
stop_2069_330001,,"Prusy","",50.110675,20.081857,,,0,,,
stop_2069_330002,,"Prusy","",50.109974,20.081494,,,0,,,
stop_2070_330101,,"Lusina Krakowka (nz)","",49.978485,19.932257,,,0,,,
stop_2070_330102,,"Lusina Krakowka (nz)","",49.978484,19.932174,,,0,,,
stop_2071_330301,,"Kaszow Szkola nr 2 (nz)","",50.021905,19.729049,,,0,,,
stop_2071_330302,,"Kaszow Szkola nr 2 (nz)","",50.021773,19.728623,,,0,,,
stop_2072_330401,,"Kaszow Wielka Droga (nz)","",50.025173,19.73629,,,0,,,
stop_2072_330402,,"Kaszow Wielka Droga (nz)","",50.025169,19.736205,,,0,,,
stop_2073_330501,,"Zagacie Gorka (nz)","",49.999922,19.696748,,,0,,,
stop_2073_330502,,"Zagacie Gorka (nz)","",49.999546,19.6961,,,0,,,
stop_2074_330601,,"Klokoczyn Szkola (nz)","",49.995033,19.639394,,,0,,,
stop_2074_330602,,"Klokoczyn Szkola (nz)","",49.995156,19.639016,,,0,,,
stop_2076_330801,,"Rusocice Na Brzegu (nz)","",49.999769,19.601966,,,0,,,
stop_2076_330802,,"Rusocice Na Brzegu (nz)","",49.999802,19.601896,,,0,,,
stop_2077_330901,,"Klokoczyn Machaczki (nz)","",49.99625,19.63181,,,0,,,
stop_2077_330902,,"Klokoczyn Machaczki (nz)","",49.99625,19.63181,,,0,,,
stop_2078_331002,,"Maly Plaszow P+R","",50.039557,20.000642,,,0,,,
stop_2078_331003,,"Maly Plaszow P+R","",50.040203,20.000888,,,0,,,
stop_2078_331004,,"Maly Plaszow P+R","",50.039944,19.999492,,,0,,,
stop_2079_331101,,"Brzegi Petla","",50.03147,20.094999,,,0,,,
stop_2079_331191,,"Brzegi Petla","",50.03147,20.094999,,,0,,,
stop_2080_331201,,"Konary Krolowej Polski (nz)","",49.933532,19.914892,,,0,,,
stop_2080_331202,,"Konary Krolowej Polski (nz)","",49.933452,19.9155,,,0,,,
stop_2081_331301,,"Mogilany Krotka (nz)","",49.933031,19.906687,,,0,,,
stop_2081_331302,,"Mogilany Krotka (nz)","",49.933581,19.906292,,,0,,,
stop_2082_331401,,"Wlosan Centrum","",49.9136,19.9029,,,0,,,
stop_2083_331501,,"swiatniki Gorne Skrzyzowanie (nz)","",49.934292,19.966981,,,0,,,
stop_2083_331502,,"swiatniki Gorne Skrzyzowanie (nz)","",49.934239,19.967339,,,0,,,
stop_2084_331601,,"swiatniki Gorne Bielowicza Szkola","",49.935151,19.963142,,,0,,,
stop_2084_331602,,"swiatniki Gorne Bielowicza Szkola","",49.935132,19.962246,,,0,,,
stop_2085_331701,,"swiatniki Gorne Centrum","",49.934223,19.953178,,,0,,,
stop_2085_331702,,"swiatniki Gorne Centrum","",49.934393,19.953999,,,0,,,
stop_2086_331801,,"swiatniki Gorne Urzad Miasta i Gminy","",49.934487,19.945441,,,0,,,
stop_2086_331802,,"swiatniki Gorne Urzad Miasta i Gminy","",49.934282,19.946741,,,0,,,
stop_2088_332001,,"swiatniki Gorne Buk (nz)","",49.935077,19.934336,,,0,,,
stop_2088_332002,,"swiatniki Gorne Buk (nz)","",49.935221,19.934509,,,0,,,
stop_2089_332101,,"Rzeszotary Dworska","",49.943548,19.993354,,,0,,,
stop_2089_332102,,"Rzeszotary Dworska","",49.943554,19.993414,,,0,,,
stop_2090_332201,,"Rzeszotary Remiza (nz)","",49.945728,19.972994,,,0,,,
stop_2090_332202,,"Rzeszotary Remiza (nz)","",49.945719,19.973041,,,0,,,
stop_2091_332301,,"Bukow Petla","",49.953043,19.834625,,,0,,,
stop_2091_332302,,"Bukow Petla","",49.953609,19.835101,,,0,,,
stop_2092_332401,,"Chorowice Petla","",49.949611,19.86947,,,0,,,
stop_2092_332491,,"Chorowice Petla","",49.949612,19.869448,,,0,,,
stop_2093_332501,,"swiatniki Gorne Krakowska (nz)","",49.938434,19.943324,,,0,,,
stop_2093_332502,,"swiatniki Gorne Krakowska (nz)","",49.938749,19.942769,,,0,,,
stop_2094_104901,,"Glowackiego","",50.075642,19.906485,,,0,,,
stop_2094_104902,,"Glowackiego","",50.075642,19.906485,,,0,,,
stop_2095_332601,,"Lusina Krakowska (nz)","",49.974974,19.923944,,,0,,,
stop_2095_332602,,"Lusina Krakowska (nz)","",49.975638,19.923037,,,0,,,
stop_2097_332701,,"Skawina Podgorki","",49.996756,19.818751,,,0,,,
stop_2097_332791,,"Skawina Podgorki","",49.99674,19.818706,,,0,,,
stop_2098_332801,,"Brzeznica Dworzec","",49.96681,19.628804,,,0,,,
stop_2099_332901,,"Brzezinka Kuznia (nz)","",49.962843,19.64963,,,0,,,
stop_2099_332902,,"Brzezinka Kuznia (nz)","",49.96296,19.649219,,,0,,,
stop_2100_333001,,"Wola Radziszowska Petla","",49.902472,19.768354,,,0,,,
stop_2101_333101,,"Ochodza Dwor","",49.9647,19.7432,,,0,,,
stop_2101_333102,,"Ochodza Dwor","",49.9647,19.7432,,,0,,,
stop_2102_333201,,"Krzecin Szczesna (nz)","",49.948807,19.730431,,,0,,,
stop_2102_333202,,"Krzecin Szczesna (nz)","",49.947943,19.730359,,,0,,,
stop_2103_333301,,"Grabie Petla","",49.92593,19.73407,,,0,,,
stop_2104_333401,,"Skawina zwirowa (nz)","",49.98697,19.80362,,,0,,,
stop_2104_333402,,"Skawina zwirowa (nz)","",49.98697,19.80362,,,0,,,
stop_2105_333501,,"Skawina zwirownia (nz)","",49.98262,19.80713,,,0,,,
stop_2105_333502,,"Skawina zwirownia (nz)","",49.98239,19.80729,,,0,,,
stop_2106_333601,,"Skawina Piastowska (nz)","",49.98737,19.80616,,,0,,,
stop_2106_333602,,"Skawina Piastowska (nz)","",49.98737,19.80616,,,0,,,
stop_2107_333701,,"Archiwum UMK (nz)","",50.05874,20.021414,,,0,,,
stop_2107_333702,,"Archiwum UMK (nz)","",50.058872,20.020806,,,0,,,
stop_2108_333801,,"Rondo Grunwaldzkie","",50.048561,19.930906,,,0,,,
stop_2108_333802,,"Rondo Grunwaldzkie","",50.048624,19.931083,,,0,,,
stop_2108_333803,,"Rondo Grunwaldzkie","",50.049637,19.932236,,,0,,,
stop_2108_333804,,"Rondo Grunwaldzkie","",50.048163,19.932524,,,0,,,
stop_2108_333805,,"Rondo Grunwaldzkie","",50.048566,19.933092,,,0,,,
stop_2108_333806,,"Rondo Grunwaldzkie","",50.048322,19.929663,,,0,,,
stop_2109_333901,,"Grabowa","",50.069714,19.859262,,,0,,,
stop_2109_333902,,"Grabowa","",50.069742,19.858908,,,0,,,
stop_2110_334001,,"Brzegi Uzytek Ekologiczny (nz)","",50.035662,20.087559,,,0,,,
stop_2110_334002,,"Brzegi Uzytek Ekologiczny (nz)","",50.034919,20.087452,,,0,,,
stop_2112_334101,,"Wegrzce Trzecia Gora (nz)","",50.109984,19.965924,,,0,,,
stop_2112_334102,,"Wegrzce Trzecia Gora (nz)","",50.110145,19.965749,,,0,,,
stop_2113_334201,,"Gorna Wies Petla","",50.162605,19.936077,,,0,,,
stop_2113_334291,,"Gorna Wies Petla","",50.162589,19.936077,,,0,,,
stop_2114_334301,,"Wola Zachariaszowska Szkola","",50.150424,19.931613,,,0,,,
stop_2114_334302,,"Wola Zachariaszowska Szkola","",50.150491,19.931387,,,0,,,
stop_2115_334401,,"Garlica Duchowna Kapliczka (nz)","",50.144172,19.924882,,,0,,,
stop_2115_334402,,"Garlica Duchowna Kapliczka (nz)","",50.143839,19.924997,,,0,,,
stop_2116_334501,,"Garlica Murowana Plac Zabaw","",50.141101,19.927652,,,0,,,
stop_2116_334502,,"Garlica Murowana Plac Zabaw","",50.140716,19.927364,,,0,,,
stop_2117_334601,,"Michalowice Laskowiec (nz)","",50.172655,19.961282,,,0,,,
stop_2117_334602,,"Michalowice Laskowiec (nz)","",50.17255,19.961755,,,0,,,
stop_2118_334701,,"Michalowice Warszawka (nz)","",50.171064,19.975201,,,0,,,
stop_2118_334702,,"Michalowice Warszawka (nz)","",50.170952,19.975402,,,0,,,
stop_2119_334801,,"Narama Graniczna Sklep (nz)","",50.180563,19.944625,,,0,,,
stop_2119_334802,,"Narama Graniczna Sklep (nz)","",50.180386,19.944478,,,0,,,
stop_2120_334901,,"Narama Ksieza (nz)","",50.18552,19.943886,,,0,,,
stop_2120_334902,,"Narama Ksieza (nz)","",50.18594,19.943666,,,0,,,
stop_2121_335001,,"Krasieniec Stary Skrzyzowanie (nz)","",50.191104,19.941397,,,0,,,
stop_2121_335002,,"Krasieniec Stary Skrzyzowanie (nz)","",50.190239,19.941721,,,0,,,
stop_2122_335101,,"Krasieniec Stary Kopalina (nz)","",50.195917,19.938827,,,0,,,
stop_2122_335102,,"Krasieniec Stary Kopalina (nz)","",50.196164,19.93864,,,0,,,
stop_2123_335201,,"Krasieniec Zakupny Remiza (nz)","",50.200937,19.939228,,,0,,,
stop_2123_335202,,"Krasieniec Zakupny Remiza (nz)","",50.200927,19.939084,,,0,,,
stop_2124_335301,,"Iwanowice Dworskie Petla","",50.2206,19.9793,,,0,,,
stop_2125_335401,,"Krasieniec Zakupny Kapliczka","",50.2114,19.9495,,,0,,,
stop_2125_335402,,"Krasieniec Zakupny Kapliczka","",50.2114,19.9495,,,0,,,
stop_2126_335501,,"Michalowice Jana Pawla II (nz)","",50.15486,19.949132,,,0,,,
stop_2126_335502,,"Michalowice Jana Pawla II (nz)","",50.15427,19.949088,,,0,,,
stop_2126_335503,,"Michalowice Jana Pawla II (nz)","",50.155,19.9481,,,0,,,
stop_2127_335601,,"Michalowice Las Michalowski","",50.1588,19.942,,,0,,,
stop_2127_335602,,"Michalowice Las Michalowski","",50.1588,19.942,,,0,,,
stop_2128_335701,,"Owczary Spacerowa (nz)","",50.1721,19.9194,,,0,,,
stop_2128_335702,,"Owczary Spacerowa (nz)","",50.1721,19.9194,,,0,,,
stop_2129_335801,,"Zielonki Jaskinia Zielonkowska (nz)","",50.132201,19.919255,,,0,,,
stop_2129_335802,,"Zielonki Jaskinia Zielonkowska (nz)","",50.132219,19.919024,,,0,,,
stop_2130_335901,,"Krasieniec Zakupny Pod Lipa","",50.2074,19.9379,,,0,,,
stop_2130_335902,,"Krasieniec Zakupny Pod Lipa","",50.2074,19.9379,,,0,,,
stop_2131_336001,,"Wola Zachariaszowska Sloneczna","",50.155589,19.936442,,,0,,,
stop_2131_336002,,"Wola Zachariaszowska Sloneczna","",50.155634,19.936156,,,0,,,
stop_2132_336101,,"Bibice Mokra","",50.13289,19.96682,,,0,,,
stop_2132_336102,,"Bibice Mokra","",50.13259,19.96536,,,0,,,
stop_2133_336201,,"Wola Radziszowska Kapelanka (nz)","",49.90416,19.82569,,,0,,,
stop_2133_336202,,"Wola Radziszowska Kapelanka (nz)","",49.90416,19.82569,,,0,,,
stop_2135_336301,,"Leszczynowa (nz)","",50.059118,19.899541,,,0,,,
stop_2136_336401,,"Konary Petla","",49.944392,19.921295,,,0,,,
stop_2142_337071,,"Dobry Poczatek (nz)","",50.039519,20.060737,,,0,,,
stop_2142_337072,,"Dobry Poczatek (nz)","",50.039519,20.060737,,,0,,,
stop_2148_337101,,"Kryspinow Stopien Wodny (nz)","",50.033411,19.816038,,,0,,,
stop_2148_337102,,"Kryspinow Stopien Wodny (nz)","",50.033271,19.816434,,,0,,,
stop_2149_337201,,"Wieclawice Stare Centrum (nz)","",50.154546,20.02673,,,0,,,
stop_2149_337202,,"Wieclawice Stare Centrum (nz)","",50.154658,20.028933,,,0,,,
stop_2150_337301,,"Libertow swietlista","",49.955042,19.929992,,,0,,,
stop_2150_337302,,"Libertow swietlista","",49.9552,19.92978,,,0,,,
stop_2151_337401,,"Maslomiaca Kozlica (nz)","",50.160331,19.989183,,,0,,,
stop_2151_337402,,"Maslomiaca Kozlica (nz)","",50.160449,19.989791,,,0,,,
stop_2152_337501,,"Zagorzyce Dworskie Remiza","",50.174817,20.039459,,,0,,,
stop_2153_337601,,"Zagorzyce Stare Owocowa (nz)","",50.166856,20.034875,,,0,,,
stop_2153_337602,,"Zagorzyce Stare Owocowa (nz)","",50.167659,20.03521,,,0,,,
stop_2154_337701,,"Ksiazniczki Paszczykowka (nz)","",50.130784,20.013962,,,0,,,
stop_2154_337702,,"Ksiazniczki Paszczykowka (nz)","",50.131205,20.013741,,,0,,,
stop_2155_337801,,"Maslomiaca Dluga (nz)","",50.157863,20.013351,,,0,,,
stop_2155_337802,,"Maslomiaca Dluga (nz)","",50.158024,20.013211,,,0,,,
stop_2156_337901,,"Pielgrzymowice Wierzbowa (nz)","",50.1509,20.048,,,0,,,
stop_2156_337902,,"Pielgrzymowice Wierzbowa (nz)","",50.1509,20.048,,,0,,,
stop_2161_338101,,"Bodzow","",50.04127,19.87208,,,0,,,
stop_2162_338201,,"Widlakowa (nz)","",50.03743,19.87736,,,0,,,
stop_2162_338202,,"Widlakowa (nz)","",50.0374,19.8774,,,0,,,
stop_2174_338301,,"Szpital Uniwersytecki / Instytut Pediatr","",50.010294,20.000091,,,0,,,
stop_2174_338302,,"Szpital Uniwersytecki / Instytut Pediatr","",50.01016,20.00027,,,0,,,
stop_2175_338401,,"Miejskie Centrum Opieki","",50.009355,20.003816,,,0,,,
stop_2175_338402,,"Miejskie Centrum Opieki","",50.009371,20.003822,,,0,,,
stop_2176_338501,,"Balice Instytut Zootechniki (nz)","",50.083852,19.788942,,,0,,,
stop_2177_338601,,"Morawica Centrum","",50.075171,19.753306,,,0,,,
stop_2177_338603,,"Morawica Centrum","",50.075152,19.753316,,,0,,,
stop_2178_338701,,"Morawica Szkola (nz)","",50.080345,19.756101,,,0,,,
stop_2178_338702,,"Morawica Szkola (nz)","",50.080203,19.755038,,,0,,,
stop_2179_338801,,"Aleksandrowice Centrum","",50.081246,19.763985,,,0,,,
stop_2179_338802,,"Aleksandrowice Centrum","",50.081208,19.76419,,,0,,,
stop_2180_338901,,"Piekary Centrum","",50.023873,19.795646,,,0,,,
stop_2180_338902,,"Piekary Centrum","",50.023524,19.796445,,,0,,,
stop_2180_338903,,"Piekary Centrum","",50.023107,19.794915,,,0,,,
stop_2181_339001,,"Nowa Wies Szlachecka Petla","",50.025833,19.690038,,,0,,,
stop_2181_339091,,"Nowa Wies Szlachecka Petla","",50.025833,19.690038,,,0,,,
stop_2182_339101,,"Nowa Wies Szlachecka Kosciol (nz)","",50.027456,19.697759,,,0,,,
stop_2182_339102,,"Nowa Wies Szlachecka Kosciol (nz)","",50.027182,19.697311,,,0,,,
stop_2183_339201,,"Nowa Wies Szlachecka Sklep (nz)","",50.030838,19.7043,,,0,,,
stop_2183_339202,,"Nowa Wies Szlachecka Sklep (nz)","",50.030838,19.704359,,,0,,,
stop_2184_339301,,"Nowa Wies Szlachecka Kapliczka (nz)","",50.033871,19.710794,,,0,,,
stop_2184_339302,,"Nowa Wies Szlachecka Kapliczka (nz)","",50.033993,19.711367,,,0,,,
stop_2185_339401,,"Czernichow Rynek","",49.987201,19.676586,,,0,,,
stop_2185_339491,,"Czernichow Rynek","",49.987178,19.676568,,,0,,,
stop_2186_339501,,"Raczna Bazanty (nz)","",50.011153,19.775366,,,0,,,
stop_2186_339502,,"Raczna Bazanty (nz)","",50.011299,19.775207,,,0,,,
stop_2187_339601,,"Raczna Remiza (nz)","",50.008,19.767507,,,0,,,
stop_2187_339602,,"Raczna Remiza (nz)","",50.008049,19.767505,,,0,,,
stop_2188_339702,,"Wolowice Remiza (nz)","",49.989722,19.727413,,,0,,,
stop_2188_339704,,"Wolowice Remiza (nz)","",49.988708,19.726972,,,0,,,
stop_2188_339705,,"Wolowice Remiza (nz)","",49.989204,19.726389,,,0,,,
stop_2188_339794,,"Wolowice Remiza (nz)","",49.988699,19.72695,,,0,,,
stop_2189_339801,,"Nowa Wies Szlachecka Jesionka (nz)","",50.026639,19.680942,,,0,,,
stop_2189_339802,,"Nowa Wies Szlachecka Jesionka (nz)","",50.026668,19.681173,,,0,,,
stop_2190_339901,,"Przeginia Duchowna Remiza","",50.022392,19.651929,,,0,,,
stop_2190_339902,,"Przeginia Duchowna Remiza","",50.022483,19.651908,,,0,,,
stop_2191_340001,,"Przeginia Narodowa Dwor (nz)","",50.011794,19.657628,,,0,,,
stop_2191_340002,,"Przeginia Narodowa Dwor (nz)","",50.011229,19.657549,,,0,,,
stop_2192_340101,,"Wolowice Skrzyzowanie (nz)","",49.995286,19.734538,,,0,,,
stop_2192_340102,,"Wolowice Skrzyzowanie (nz)","",49.995375,19.734058,,,0,,,
stop_2193_340201,,"Czernichow Studzienki (nz)","",49.992066,19.685482,,,0,,,
stop_2193_340202,,"Czernichow Studzienki (nz)","",49.99208,19.685268,,,0,,,
stop_2194_340301,,"Wolowice Niwka (nz)","",49.988512,19.702418,,,0,,,
stop_2194_340302,,"Wolowice Niwka (nz)","",49.988479,19.702496,,,0,,,
stop_2195_340401,,"Kamien Remiza (nz)","",50.009347,19.583957,,,0,,,
stop_2195_340402,,"Kamien Remiza (nz)","",50.009333,19.583983,,,0,,,
stop_2196_340501,,"Rusocice Granica (nz)","",50.004901,19.588291,,,0,,,
stop_2196_340502,,"Rusocice Granica (nz)","",50.005214,19.587987,,,0,,,
stop_2197_340601,,"Przeginia Narodowa Bunar (nz)","",50.00573,19.660752,,,0,,,
stop_2197_340602,,"Przeginia Narodowa Bunar (nz)","",50.005702,19.660688,,,0,,,
stop_2198_340701,,"Przeginia Duchowna Kosciol (nz)","",50.019578,19.653151,,,0,,,
stop_2198_340702,,"Przeginia Duchowna Kosciol (nz)","",50.018611,19.652972,,,0,,,
stop_2199_340801,,"Raczna Golebiec (nz)","",50.01655,19.775944,,,0,,,
stop_2199_340802,,"Raczna Golebiec (nz)","",50.015732,19.775132,,,0,,,
stop_2199_340803,,"Raczna Golebiec (nz)","",50.01645,19.774644,,,0,,,
stop_2200_72301,,"Ukraina (nz)","",49.97578,19.94578,,,0,,,
stop_2200_72302,,"Ukraina (nz)","",49.97548,19.94632,,,0,,,
stop_2202_341301,,"Bolechowice Centrum","",50.147146,19.791689,,,0,,,
stop_2202_341302,,"Bolechowice Centrum","",50.147345,19.791369,,,0,,,
stop_2202_341303,,"Bolechowice Centrum","",50.146919,19.792152,,,0,,,
stop_2202_341304,,"Bolechowice Centrum","",50.146501,19.792799,,,0,,,
stop_2203_341401,,"Burow Balica (nz)","",50.093851,19.773963,,,0,,,
stop_2203_341402,,"Burow Balica (nz)","",50.093464,19.774538,,,0,,,
stop_2204_341501,,"Balice Remiza (nz)","",50.086799,19.790985,,,0,,,
stop_2204_341502,,"Balice Remiza (nz)","",50.086703,19.791232,,,0,,,
stop_2205_341601,,"Wieckowice Ogrodowa (nz)","",50.137862,19.769798,,,0,,,
stop_2205_341602,,"Wieckowice Ogrodowa (nz)","",50.137568,19.770155,,,0,,,
stop_2206_341701,,"Brzezinka Kosciol","",50.137944,19.738607,,,0,,,
stop_2206_341702,,"Brzezinka Kosciol","",50.138161,19.738943,,,0,,,
stop_2207_341801,,"Rudawa Osiedle (nz)","",50.127314,19.720984,,,0,,,
stop_2207_341802,,"Rudawa Osiedle (nz)","",50.12706,19.720891,,,0,,,
stop_2208_341901,,"Rudawa Rynek","",50.12259,19.711631,,,0,,,
stop_2208_341991,,"Rudawa Rynek","",50.122581,19.711662,,,0,,,
stop_2209_342001,,"Pisary Spacerowa (nz)","",50.125672,19.696965,,,0,,,
stop_2209_342002,,"Pisary Spacerowa (nz)","",50.125584,19.696737,,,0,,,
stop_2210_342101,,"Pisary Akacjowa (nz)","",50.125584,19.696737,,,0,,,
stop_2210_342102,,"Pisary Akacjowa (nz)","",50.125672,19.696965,,,0,,,
stop_2211_342201,,"Pisary Mleczna (nz)","",50.124676,19.702074,,,0,,,
stop_2211_342202,,"Pisary Mleczna (nz)","",50.124719,19.702162,,,0,,,
stop_2212_342301,,"Kleszczow Centrum","",50.104931,19.748884,,,0,,,
stop_2212_342391,,"Kleszczow Centrum","",50.104931,19.748884,,,0,,,
stop_2213_342401,,"Nielepice Petla","",50.106682,19.709545,,,0,,,
stop_2214_341201,,"Domagaly Magazyny (nz)","",50.032443,20.052054,,,0,,,
stop_2214_341202,,"Domagaly Magazyny (nz)","",50.03302,20.05109,,,0,,,
stop_2215_342601,,"Wrzasowice Bonifraterska (nz)","",49.94842,19.946896,,,0,,,
stop_2215_342602,,"Wrzasowice Bonifraterska (nz)","",49.947773,19.947062,,,0,,,
stop_2222_342701,,"Wolica Szkola (nz)","",50.055813,20.193116,,,0,,,
stop_2222_342702,,"Wolica Szkola (nz)","",50.055853,20.193423,,,0,,,
stop_2232_342901,,"Wieliczka Miasto","",49.98637,20.074938,,,0,,,
stop_2233_343001,,"Wieliczka Klasztor","",49.988479,20.055662,,,0,,,
stop_2233_343002,,"Wieliczka Klasztor","",49.9887,20.053571,,,0,,,
stop_2234_343101,,"Wieliczka Mediateka","",49.984365,20.063428,,,0,,,
stop_2234_343102,,"Wieliczka Mediateka","",49.984174,20.064599,,,0,,,
stop_2260_344101,,"Skawina SCK","",49.97649,19.82157,,,0,,,
stop_2296_344201,,"Wegrzce B1 (nz)","",50.11,19.9911,,,0,,,
stop_2296_344202,,"Wegrzce B1 (nz)","",50.11,19.9911,,,0,,,
stop_2297_344301,,"Wegrzce B4 (nz)","",50.109638,19.980105,,,0,,,
stop_2297_344302,,"Wegrzce B4 (nz)","",50.109023,19.981006,,,0,,,
stop_2298_344401,,"Wegrzce Sudol (nz)","",50.107308,19.985354,,,0,,,
stop_2298_344402,,"Wegrzce Sudol (nz)","",50.107221,19.984951,,,0,,,
stop_2299_344501,,"Os. Kosciuszkowskie","",50.082748,20.016429,,,0,,,
stop_2299_344502,,"Os. Kosciuszkowskie","",50.082635,20.016729,,,0,,,
stop_2300_345071,,"Tretowka","",49.98999,19.86123,,,0,,,
stop_2301_345101,,"Kopanka Ofiar Katynia","",49.976848,19.784506,,,0,,,
stop_2301_345191,,"Kopanka Ofiar Katynia","",49.976836,19.784504,,,0,,,
stop_2302_345201,,"Raciborowice Wawelska","",50.11695,20.033531,,,0,,,
stop_2302_345202,,"Raciborowice Wawelska","",50.116771,20.032544,,,0,,,
stop_2303_345301,,"Zastow Petla","",50.121284,20.050722,,,0,,,
stop_2303_345391,,"Zastow Petla","",50.121326,20.050532,,,0,,,
stop_2304_345401,,"Smardzowice Remiza","",50.1919,19.8538,,,0,,,
stop_2305_345501,,"Owczary Dluga (nz)","",50.1775,19.9082,,,0,,,
stop_2305_345502,,"Owczary Dluga (nz)","",50.1775,19.9082,,,0,,,
stop_2306_345601,,"Grebynice Remiza (nz)","",50.1661,19.8728,,,0,,,
stop_2306_345602,,"Grebynice Remiza (nz)","",50.1661,19.8728,,,0,,,
stop_2307_345701,,"Grebynice Parkowa (nz)","",50.1676,19.8678,,,0,,,
stop_2307_345702,,"Grebynice Parkowa (nz)","",50.1676,19.8678,,,0,,,
stop_2308_345801,,"Maszyce Sadzawka (nz)","",50.1778,19.8634,,,0,,,
stop_2308_345802,,"Maszyce Sadzawka (nz)","",50.1778,19.8634,,,0,,,
stop_2309_345903,,"Bronowice SKA","",50.081302,19.890761,,,0,,,
stop_2309_345904,,"Bronowice SKA","",50.08168,19.88872,,,0,,,
stop_2309_345905,,"Bronowice SKA","",50.081673,19.888639,,,0,,,
stop_2309_345906,,"Bronowice SKA","",50.081571,19.890597,,,0,,,
stop_2309_345907,,"Bronowice SKA","",50.080903,19.890649,,,0,,,
stop_2310_346001,,"Starego Wiarusa","",50.101499,19.909524,,,0,,,
stop_2310_346002,,"Starego Wiarusa","",50.10084,19.910032,,,0,,,
stop_2311_32501,,"Wawel","",50.05432,19.93938,,,0,,,
stop_2311_32502,,"Wawel","",50.05444,19.93965,,,0,,,
stop_2312_274102,,"sw.Gertrudy","",50.05851,19.94081,,,0,,,
